header: 
  seq: 252
  stamp: 
    secs: 1467883332
    nsecs:  71409218
  frame_id: camera_rgb_optical_frame
detections: 
  - 
    header: 
      seq: 0
      stamp: 
        secs: 1467883332
        nsecs:  71409218
      frame_id: camera_rgb_optical_frame
    id: 0
    corners2d: 
      - 
        x: 237.5
        y: 147.5
        z: 1.0
      - 
        x: 239.5
        y: 235.5
        z: 1.0
      - 
        x: 324.5
        y: 233.5
        z: 1.0
      - 
        x: 324.5
        y: 149.5
        z: 1.0
    tag_size: 0.10000000149
    pose: 
      position: 
        x: -0.0434001865642
        y: -0.0554220195969
        z: 0.662280929011
      orientation: 
        x: 0.70706274606
        y: 0.699127442288
        z: 0.098560189049
        w: 0.0396103737582
---
header: 
  seq: 253
  stamp: 
    secs: 1467883332
    nsecs: 138441317
  frame_id: camera_rgb_optical_frame
detections: 
  - 
    header: 
      seq: 0
      stamp: 
        secs: 1467883332
        nsecs: 138441317
      frame_id: camera_rgb_optical_frame
    id: 0
    corners2d: 
      - 
        x: 238.5
        y: 149.5
        z: 1.0
      - 
        x: 239.5
        y: 234.5
        z: 1.0
      - 
        x: 323.5
        y: 233.5
        z: 1.0
      - 
        x: 323.5
        y: 149.5
        z: 1.0
    tag_size: 0.10000000149
    pose: 
      position: 
        x: -0.0450981417933
        y: -0.05634990116
        z: 0.676887519158
      orientation: 
        x: 0.708133127312
        y: 0.70362994684
        z: 0.0587123782632
        w: -0.00228660281248
---
header: 
  seq: 254
  stamp: 
    secs: 1467883332
    nsecs: 171957247
  frame_id: camera_rgb_optical_frame
detections: 
  - 
    header: 
      seq: 0
      stamp: 
        secs: 1467883332
        nsecs: 171957247
      frame_id: camera_rgb_optical_frame
    id: 0
    corners2d: 
      - 
        x: 238.5
        y: 147.5
        z: 1.0
      - 
        x: 239.5
        y: 235.5
        z: 1.0
      - 
        x: 323.5
        y: 234.5
        z: 1.0
      - 
        x: 324.5
        y: 149.5
        z: 1.0
    tag_size: 0.10000000149
    pose: 
      position: 
        x: -0.0432235182142
        y: -0.0550393294373
        z: 0.662024373384
      orientation: 
        x: 0.70240808815
        y: 0.699746043645
        z: 0.120821112461
        w: 0.0487915042708
---
header: 
  seq: 255
  stamp: 
    secs: 1467883332
    nsecs: 200413219
  frame_id: camera_rgb_optical_frame
detections: 
  - 
    header: 
      seq: 0
      stamp: 
        secs: 1467883332
        nsecs: 200413219
      frame_id: camera_rgb_optical_frame
    id: 0
    corners2d: 
      - 
        x: 237.5
        y: 147.5
        z: 1.0
      - 
        x: 239.5
        y: 235.5
        z: 1.0
      - 
        x: 323.5
        y: 234.5
        z: 1.0
      - 
        x: 324.5
        y: 149.5
        z: 1.0
    tag_size: 0.10000000149
    pose: 
      position: 
        x: -0.0435840489171
        y: -0.0549782789438
        z: 0.661545026807
      orientation: 
        x: 0.703979023387
        y: 0.700251675985
        z: 0.112908964529
        w: 0.0362310728513
---
header: 
  seq: 256
  stamp: 
    secs: 1467883332
    nsecs: 229367487
  frame_id: camera_rgb_optical_frame
detections: 
  - 
    header: 
      seq: 0
      stamp: 
        secs: 1467883332
        nsecs: 229367487
      frame_id: camera_rgb_optical_frame
    id: 0
    corners2d: 
      - 
        x: 238.5
        y: 147.5
        z: 1.0
      - 
        x: 238.5
        y: 234.5
        z: 1.0
      - 
        x: 323.5
        y: 234.5
        z: 1.0
      - 
        x: 324.5
        y: 149.5
        z: 1.0
    tag_size: 0.10000000149
    pose: 
      position: 
        x: -0.0440588200051
        y: -0.0557172763245
        z: 0.66571090199
      orientation: 
        x: 0.702615262795
        y: 0.706044856865
        z: 0.0842521850707
        w: 0.0270928384018
---
header: 
  seq: 257
  stamp: 
    secs: 1467883332
    nsecs: 262883417
  frame_id: camera_rgb_optical_frame
detections: 
  - 
    header: 
      seq: 0
      stamp: 
        secs: 1467883332
        nsecs: 262883417
      frame_id: camera_rgb_optical_frame
    id: 0
    corners2d: 
      - 
        x: 237.5
        y: 147.5
        z: 1.0
      - 
        x: 239.5
        y: 235.5
        z: 1.0
      - 
        x: 324.5
        y: 233.5
        z: 1.0
      - 
        x: 324.5
        y: 149.5
        z: 1.0
    tag_size: 0.10000000149
    pose: 
      position: 
        x: -0.0434001865642
        y: -0.0554220195969
        z: 0.662280929011
      orientation: 
        x: 0.70706274606
        y: 0.699127442288
        z: 0.098560189049
        w: 0.0396103737582
---
header: 
  seq: 258
  stamp: 
    secs: 1467883332
    nsecs: 296399347
  frame_id: camera_rgb_optical_frame
detections: 
  - 
    header: 
      seq: 0
      stamp: 
        secs: 1467883332
        nsecs: 296399347
      frame_id: camera_rgb_optical_frame
    id: 0
    corners2d: 
      - 
        x: 238.5
        y: 147.5
        z: 1.0
      - 
        x: 239.5
        y: 235.5
        z: 1.0
      - 
        x: 323.5
        y: 234.5
        z: 1.0
      - 
        x: 324.5
        y: 149.5
        z: 1.0
    tag_size: 0.10000000149
    pose: 
      position: 
        x: -0.0432235182142
        y: -0.0550393294373
        z: 0.662024373384
      orientation: 
        x: 0.70240808815
        y: 0.699746043645
        z: 0.120821112461
        w: 0.0487915042708
---
header: 
  seq: 259
  stamp: 
    secs: 1467883332
    nsecs: 329901926
  frame_id: camera_rgb_optical_frame
detections: 
  - 
    header: 
      seq: 0
      stamp: 
        secs: 1467883332
        nsecs: 329901926
      frame_id: camera_rgb_optical_frame
    id: 0
    corners2d: 
      - 
        x: 238.5
        y: 147.5
        z: 1.0
      - 
        x: 239.5
        y: 235.5
        z: 1.0
      - 
        x: 324.5
        y: 233.5
        z: 1.0
      - 
        x: 324.5
        y: 149.5
        z: 1.0
    tag_size: 0.10000000149
    pose: 
      position: 
        x: -0.043106594956
        y: -0.0555195075599
        z: 0.663309522584
      orientation: 
        x: 0.705693251536
        y: 0.699153685102
        z: 0.104302085448
        w: 0.0479816039383
---
header: 
  seq: 260
  stamp: 
    secs: 1467883332
    nsecs: 363417856
  frame_id: camera_rgb_optical_frame
detections: 
  - 
    header: 
      seq: 0
      stamp: 
        secs: 1467883332
        nsecs: 363417856
      frame_id: camera_rgb_optical_frame
    id: 0
    corners2d: 
      - 
        x: 238.5
        y: 147.5
        z: 1.0
      - 
        x: 239.5
        y: 235.5
        z: 1.0
      - 
        x: 323.5
        y: 234.5
        z: 1.0
      - 
        x: 324.5
        y: 149.5
        z: 1.0
    tag_size: 0.10000000149
    pose: 
      position: 
        x: -0.0432235182142
        y: -0.0550393294373
        z: 0.662024373384
      orientation: 
        x: 0.70240808815
        y: 0.699746043645
        z: 0.120821112461
        w: 0.0487915042708
---
header: 
  seq: 261
  stamp: 
    secs: 1467883332
    nsecs: 396662228
  frame_id: camera_rgb_optical_frame
detections: 
  - 
    header: 
      seq: 0
      stamp: 
        secs: 1467883332
        nsecs: 396662228
      frame_id: camera_rgb_optical_frame
    id: 0
    corners2d: 
      - 
        x: 237.5
        y: 147.5
        z: 1.0
      - 
        x: 239.5
        y: 235.5
        z: 1.0
      - 
        x: 323.5
        y: 234.5
        z: 1.0
      - 
        x: 324.5
        y: 149.5
        z: 1.0
    tag_size: 0.10000000149
    pose: 
      position: 
        x: -0.0435840489171
        y: -0.0549782789438
        z: 0.661545026807
      orientation: 
        x: 0.703979023387
        y: 0.700251675985
        z: 0.112908964529
        w: 0.0362310728513
---
header: 
  seq: 262
  stamp: 
    secs: 1467883332
    nsecs: 430137865
  frame_id: camera_rgb_optical_frame
detections: 
  - 
    header: 
      seq: 0
      stamp: 
        secs: 1467883332
        nsecs: 430137865
      frame_id: camera_rgb_optical_frame
    id: 0
    corners2d: 
      - 
        x: 238.5
        y: 147.5
        z: 1.0
      - 
        x: 238.5
        y: 234.5
        z: 1.0
      - 
        x: 323.5
        y: 234.5
        z: 1.0
      - 
        x: 324.5
        y: 149.5
        z: 1.0
    tag_size: 0.10000000149
    pose: 
      position: 
        x: -0.0440588200051
        y: -0.0557172763245
        z: 0.66571090199
      orientation: 
        x: 0.702615262795
        y: 0.706044856865
        z: 0.0842521850707
        w: 0.0270928384018
---
header: 
  seq: 263
  stamp: 
    secs: 1467883332
    nsecs: 463623039
  frame_id: camera_rgb_optical_frame
detections: 
  - 
    header: 
      seq: 0
      stamp: 
        secs: 1467883332
        nsecs: 463623039
      frame_id: camera_rgb_optical_frame
    id: 0
    corners2d: 
      - 
        x: 237.5
        y: 147.5
        z: 1.0
      - 
        x: 239.5
        y: 235.5
        z: 1.0
      - 
        x: 323.5
        y: 234.5
        z: 1.0
      - 
        x: 324.5
        y: 149.5
        z: 1.0
    tag_size: 0.10000000149
    pose: 
      position: 
        x: -0.0435840489171
        y: -0.0549782789438
        z: 0.661545026807
      orientation: 
        x: 0.703979023387
        y: 0.700251675985
        z: 0.112908964529
        w: 0.0362310728513
---
header: 
  seq: 264
  stamp: 
    secs: 1467883332
    nsecs: 497089140
  frame_id: camera_rgb_optical_frame
detections: 
  - 
    header: 
      seq: 0
      stamp: 
        secs: 1467883332
        nsecs: 497089140
      frame_id: camera_rgb_optical_frame
    id: 0
    corners2d: 
      - 
        x: 237.5
        y: 147.5
        z: 1.0
      - 
        x: 239.5
        y: 235.5
        z: 1.0
      - 
        x: 323.5
        y: 234.5
        z: 1.0
      - 
        x: 324.5
        y: 149.5
        z: 1.0
    tag_size: 0.10000000149
    pose: 
      position: 
        x: -0.0435840489171
        y: -0.0549782789438
        z: 0.661545026807
      orientation: 
        x: 0.703979023387
        y: 0.700251675985
        z: 0.112908964529
        w: 0.0362310728513
---
header: 
  seq: 265
  stamp: 
    secs: 1467883332
    nsecs: 530601017
  frame_id: camera_rgb_optical_frame
detections: 
  - 
    header: 
      seq: 0
      stamp: 
        secs: 1467883332
        nsecs: 530601017
      frame_id: camera_rgb_optical_frame
    id: 0
    corners2d: 
      - 
        x: 237.5
        y: 147.5
        z: 1.0
      - 
        x: 239.5
        y: 235.5
        z: 1.0
      - 
        x: 323.5
        y: 234.5
        z: 1.0
      - 
        x: 324.5
        y: 149.5
        z: 1.0
    tag_size: 0.10000000149
    pose: 
      position: 
        x: -0.0435840489171
        y: -0.0549782789438
        z: 0.661545026807
      orientation: 
        x: 0.703979023387
        y: 0.700251675985
        z: 0.112908964529
        w: 0.0362310728513
---
header: 
  seq: 266
  stamp: 
    secs: 1467883332
    nsecs: 564117186
  frame_id: camera_rgb_optical_frame
detections: 
  - 
    header: 
      seq: 0
      stamp: 
        secs: 1467883332
        nsecs: 564117186
      frame_id: camera_rgb_optical_frame
    id: 0
    corners2d: 
      - 
        x: 237.5
        y: 147.5
        z: 1.0
      - 
        x: 239.5
        y: 235.5
        z: 1.0
      - 
        x: 323.5
        y: 234.5
        z: 1.0
      - 
        x: 324.5
        y: 149.5
        z: 1.0
    tag_size: 0.10000000149
    pose: 
      position: 
        x: -0.0435840489171
        y: -0.0549782789438
        z: 0.661545026807
      orientation: 
        x: 0.703979023387
        y: 0.700251675985
        z: 0.112908964529
        w: 0.0362310728513
---
header: 
  seq: 267
  stamp: 
    secs: 1467883332
    nsecs: 597633116
  frame_id: camera_rgb_optical_frame
detections: 
  - 
    header: 
      seq: 0
      stamp: 
        secs: 1467883332
        nsecs: 597633116
      frame_id: camera_rgb_optical_frame
    id: 0
    corners2d: 
      - 
        x: 237.5
        y: 147.5
        z: 1.0
      - 
        x: 239.5
        y: 235.5
        z: 1.0
      - 
        x: 323.5
        y: 234.5
        z: 1.0
      - 
        x: 324.5
        y: 149.5
        z: 1.0
    tag_size: 0.10000000149
    pose: 
      position: 
        x: -0.0435840489171
        y: -0.0549782789438
        z: 0.661545026807
      orientation: 
        x: 0.703979023387
        y: 0.700251675985
        z: 0.112908964529
        w: 0.0362310728513
---
header: 
  seq: 268
  stamp: 
    secs: 1467883332
    nsecs: 631123058
  frame_id: camera_rgb_optical_frame
detections: 
  - 
    header: 
      seq: 0
      stamp: 
        secs: 1467883332
        nsecs: 631123058
      frame_id: camera_rgb_optical_frame
    id: 0
    corners2d: 
      - 
        x: 238.5
        y: 147.5
        z: 1.0
      - 
        x: 239.5
        y: 235.5
        z: 1.0
      - 
        x: 323.5
        y: 234.5
        z: 1.0
      - 
        x: 324.5
        y: 149.5
        z: 1.0
    tag_size: 0.10000000149
    pose: 
      position: 
        x: -0.0432235182142
        y: -0.0550393294373
        z: 0.662024373384
      orientation: 
        x: 0.70240808815
        y: 0.699746043645
        z: 0.120821112461
        w: 0.0487915042708
---
header: 
  seq: 269
  stamp: 
    secs: 1467883332
    nsecs: 664638988
  frame_id: camera_rgb_optical_frame
detections: 
  - 
    header: 
      seq: 0
      stamp: 
        secs: 1467883332
        nsecs: 664638988
      frame_id: camera_rgb_optical_frame
    id: 0
    corners2d: 
      - 
        x: 238.5
        y: 147.5
        z: 1.0
      - 
        x: 239.5
        y: 235.5
        z: 1.0
      - 
        x: 323.5
        y: 234.5
        z: 1.0
      - 
        x: 324.5
        y: 149.5
        z: 1.0
    tag_size: 0.10000000149
    pose: 
      position: 
        x: -0.0432235182142
        y: -0.0550393294373
        z: 0.662024373384
      orientation: 
        x: 0.70240808815
        y: 0.699746043645
        z: 0.120821112461
        w: 0.0487915042708
---
header: 
  seq: 270
  stamp: 
    secs: 1467883332
    nsecs: 698155157
  frame_id: camera_rgb_optical_frame
detections: 
  - 
    header: 
      seq: 0
      stamp: 
        secs: 1467883332
        nsecs: 698155157
      frame_id: camera_rgb_optical_frame
    id: 0
    corners2d: 
      - 
        x: 237.5
        y: 147.5
        z: 1.0
      - 
        x: 239.5
        y: 235.5
        z: 1.0
      - 
        x: 323.5
        y: 234.5
        z: 1.0
      - 
        x: 324.5
        y: 149.5
        z: 1.0
    tag_size: 0.10000000149
    pose: 
      position: 
        x: -0.0435840489171
        y: -0.0549782789438
        z: 0.661545026807
      orientation: 
        x: 0.703979023387
        y: 0.700251675985
        z: 0.112908964529
        w: 0.0362310728513
---
header: 
  seq: 271
  stamp: 
    secs: 1467883332
    nsecs: 731671087
  frame_id: camera_rgb_optical_frame
detections: 
  - 
    header: 
      seq: 0
      stamp: 
        secs: 1467883332
        nsecs: 731671087
      frame_id: camera_rgb_optical_frame
    id: 0
    corners2d: 
      - 
        x: 237.5
        y: 147.5
        z: 1.0
      - 
        x: 239.5
        y: 235.5
        z: 1.0
      - 
        x: 323.5
        y: 234.5
        z: 1.0
      - 
        x: 324.5
        y: 149.5
        z: 1.0
    tag_size: 0.10000000149
    pose: 
      position: 
        x: -0.0435840489171
        y: -0.0549782789438
        z: 0.661545026807
      orientation: 
        x: 0.703979023387
        y: 0.700251675985
        z: 0.112908964529
        w: 0.0362310728513
---
header: 
  seq: 272
  stamp: 
    secs: 1467883332
    nsecs: 765135281
  frame_id: camera_rgb_optical_frame
detections: 
  - 
    header: 
      seq: 0
      stamp: 
        secs: 1467883332
        nsecs: 765135281
      frame_id: camera_rgb_optical_frame
    id: 0
    corners2d: 
      - 
        x: 238.5
        y: 147.5
        z: 1.0
      - 
        x: 239.5
        y: 234.5
        z: 1.0
      - 
        x: 323.5
        y: 234.5
        z: 1.0
      - 
        x: 324.5
        y: 149.5
        z: 1.0
    tag_size: 0.10000000149
    pose: 
      position: 
        x: -0.0437245966838
        y: -0.0557743619378
        z: 0.666628991574
      orientation: 
        x: 0.703055318065
        y: 0.703659590173
        z: 0.0966827228074
        w: 0.0350549854935
---
header: 
  seq: 273
  stamp: 
    secs: 1467883332
    nsecs: 798632376
  frame_id: camera_rgb_optical_frame
detections: 
  - 
    header: 
      seq: 0
      stamp: 
        secs: 1467883332
        nsecs: 798632376
      frame_id: camera_rgb_optical_frame
    id: 0
    corners2d: 
      - 
        x: 237.5
        y: 147.5
        z: 1.0
      - 
        x: 239.5
        y: 235.5
        z: 1.0
      - 
        x: 323.5
        y: 234.5
        z: 1.0
      - 
        x: 324.5
        y: 149.5
        z: 1.0
    tag_size: 0.10000000149
    pose: 
      position: 
        x: -0.0435840489171
        y: -0.0549782789438
        z: 0.661545026807
      orientation: 
        x: 0.703979023387
        y: 0.700251675985
        z: 0.112908964529
        w: 0.0362310728513
---
header: 
  seq: 274
  stamp: 
    secs: 1467883332
    nsecs: 832123749
  frame_id: camera_rgb_optical_frame
detections: 
  - 
    header: 
      seq: 0
      stamp: 
        secs: 1467883332
        nsecs: 832123749
      frame_id: camera_rgb_optical_frame
    id: 0
    corners2d: 
      - 
        x: 238.5
        y: 147.5
        z: 1.0
      - 
        x: 239.5
        y: 235.5
        z: 1.0
      - 
        x: 323.5
        y: 234.5
        z: 1.0
      - 
        x: 324.5
        y: 149.5
        z: 1.0
    tag_size: 0.10000000149
    pose: 
      position: 
        x: -0.0432235182142
        y: -0.0550393294373
        z: 0.662024373384
      orientation: 
        x: 0.70240808815
        y: 0.699746043645
        z: 0.120821112461
        w: 0.0487915042708
---
header: 
  seq: 275
  stamp: 
    secs: 1467883332
    nsecs: 865639679
  frame_id: camera_rgb_optical_frame
detections: 
  - 
    header: 
      seq: 0
      stamp: 
        secs: 1467883332
        nsecs: 865639679
      frame_id: camera_rgb_optical_frame
    id: 0
    corners2d: 
      - 
        x: 238.5
        y: 147.5
        z: 1.0
      - 
        x: 239.5
        y: 235.5
        z: 1.0
      - 
        x: 323.5
        y: 234.5
        z: 1.0
      - 
        x: 324.5
        y: 149.5
        z: 1.0
    tag_size: 0.10000000149
    pose: 
      position: 
        x: -0.0432235182142
        y: -0.0550393294373
        z: 0.662024373384
      orientation: 
        x: 0.70240808815
        y: 0.699746043645
        z: 0.120821112461
        w: 0.0487915042708
---
header: 
  seq: 276
  stamp: 
    secs: 1467883332
    nsecs: 899155609
  frame_id: camera_rgb_optical_frame
detections: 
  - 
    header: 
      seq: 0
      stamp: 
        secs: 1467883332
        nsecs: 899155609
      frame_id: camera_rgb_optical_frame
    id: 0
    corners2d: 
      - 
        x: 237.5
        y: 147.5
        z: 1.0
      - 
        x: 239.5
        y: 234.5
        z: 1.0
      - 
        x: 323.5
        y: 234.5
        z: 1.0
      - 
        x: 324.5
        y: 149.5
        z: 1.0
    tag_size: 0.10000000149
    pose: 
      position: 
        x: -0.0444120097214
        y: -0.0553917296141
        z: 0.6657429559
      orientation: 
        x: 0.702015409874
        y: 0.706284456019
        z: 0.082905394892
        w: -0.0382534571413
---
header: 
  seq: 277
  stamp: 
    secs: 1467883332
    nsecs: 932590000
  frame_id: camera_rgb_optical_frame
detections: 
  - 
    header: 
      seq: 0
      stamp: 
        secs: 1467883332
        nsecs: 932590000
      frame_id: camera_rgb_optical_frame
    id: 0
    corners2d: 
      - 
        x: 238.5
        y: 147.5
        z: 1.0
      - 
        x: 239.5
        y: 235.5
        z: 1.0
      - 
        x: 323.5
        y: 234.5
        z: 1.0
      - 
        x: 324.5
        y: 149.5
        z: 1.0
    tag_size: 0.10000000149
    pose: 
      position: 
        x: -0.0432235182142
        y: -0.0550393294373
        z: 0.662024373384
      orientation: 
        x: 0.70240808815
        y: 0.699746043645
        z: 0.120821112461
        w: 0.0487915042708
---
header: 
  seq: 278
  stamp: 
    secs: 1467883332
    nsecs: 966044657
  frame_id: camera_rgb_optical_frame
detections: 
  - 
    header: 
      seq: 0
      stamp: 
        secs: 1467883332
        nsecs: 966044657
      frame_id: camera_rgb_optical_frame
    id: 0
    corners2d: 
      - 
        x: 237.5
        y: 147.5
        z: 1.0
      - 
        x: 239.5
        y: 234.5
        z: 1.0
      - 
        x: 323.5
        y: 234.5
        z: 1.0
      - 
        x: 324.5
        y: 149.5
        z: 1.0
    tag_size: 0.10000000149
    pose: 
      position: 
        x: -0.0444120097214
        y: -0.0553917296141
        z: 0.6657429559
      orientation: 
        x: 0.702015409874
        y: 0.706284456019
        z: 0.082905394892
        w: -0.0382534571413
---
header: 
  seq: 279
  stamp: 
    secs: 1467883332
    nsecs: 999549620
  frame_id: camera_rgb_optical_frame
detections: 
  - 
    header: 
      seq: 0
      stamp: 
        secs: 1467883332
        nsecs: 999549620
      frame_id: camera_rgb_optical_frame
    id: 0
    corners2d: 
      - 
        x: 237.5
        y: 147.5
        z: 1.0
      - 
        x: 239.5
        y: 235.5
        z: 1.0
      - 
        x: 323.5
        y: 234.5
        z: 1.0
      - 
        x: 324.5
        y: 149.5
        z: 1.0
    tag_size: 0.10000000149
    pose: 
      position: 
        x: -0.0435840489171
        y: -0.0549782789438
        z: 0.661545026807
      orientation: 
        x: 0.703979023387
        y: 0.700251675985
        z: 0.112908964529
        w: 0.0362310728513
---
header: 
  seq: 280
  stamp: 
    secs: 1467883333
    nsecs:  33065788
  frame_id: camera_rgb_optical_frame
detections: 
  - 
    header: 
      seq: 0
      stamp: 
        secs: 1467883333
        nsecs:  33065788
      frame_id: camera_rgb_optical_frame
    id: 0
    corners2d: 
      - 
        x: 238.5
        y: 147.5
        z: 1.0
      - 
        x: 239.5
        y: 234.5
        z: 1.0
      - 
        x: 323.5
        y: 234.5
        z: 1.0
      - 
        x: 324.5
        y: 149.5
        z: 1.0
    tag_size: 0.10000000149
    pose: 
      position: 
        x: -0.0437245966838
        y: -0.0557743619378
        z: 0.666628991574
      orientation: 
        x: 0.703055318065
        y: 0.703659590173
        z: 0.0966827228074
        w: 0.0350549854935
---
header: 
  seq: 281
  stamp: 
    secs: 1467883333
    nsecs:  66581718
  frame_id: camera_rgb_optical_frame
detections: 
  - 
    header: 
      seq: 0
      stamp: 
        secs: 1467883333
        nsecs:  66581718
      frame_id: camera_rgb_optical_frame
    id: 0
    corners2d: 
      - 
        x: 238.5
        y: 147.5
        z: 1.0
      - 
        x: 239.5
        y: 234.5
        z: 1.0
      - 
        x: 323.5
        y: 234.5
        z: 1.0
      - 
        x: 324.5
        y: 149.5
        z: 1.0
    tag_size: 0.10000000149
    pose: 
      position: 
        x: -0.0437245966838
        y: -0.0557743619378
        z: 0.666628991574
      orientation: 
        x: 0.703055318065
        y: 0.703659590173
        z: 0.0966827228074
        w: 0.0350549854935
---
header: 
  seq: 282
  stamp: 
    secs: 1467883333
    nsecs: 100097649
  frame_id: camera_rgb_optical_frame
detections: 
  - 
    header: 
      seq: 0
      stamp: 
        secs: 1467883333
        nsecs: 100097649
      frame_id: camera_rgb_optical_frame
    id: 0
    corners2d: 
      - 
        x: 237.5
        y: 148.5
        z: 1.0
      - 
        x: 239.5
        y: 234.5
        z: 1.0
      - 
        x: 323.5
        y: 234.5
        z: 1.0
      - 
        x: 324.5
        y: 149.5
        z: 1.0
    tag_size: 0.10000000149
    pose: 
      position: 
        x: -0.0445760582222
        y: -0.0551042549832
        z: 0.666802486223
      orientation: 
        x: 0.70188106304
        y: 0.705390255102
        z: 0.0818306421555
        w: -0.0555995265919
---
header: 
  seq: 283
  stamp: 
    secs: 1467883333
    nsecs: 133613817
  frame_id: camera_rgb_optical_frame
detections: 
  - 
    header: 
      seq: 0
      stamp: 
        secs: 1467883333
        nsecs: 133613817
      frame_id: camera_rgb_optical_frame
    id: 0
    corners2d: 
      - 
        x: 238.5
        y: 147.5
        z: 1.0
      - 
        x: 239.5
        y: 234.5
        z: 1.0
      - 
        x: 323.5
        y: 234.5
        z: 1.0
      - 
        x: 324.5
        y: 149.5
        z: 1.0
    tag_size: 0.10000000149
    pose: 
      position: 
        x: -0.0437245966838
        y: -0.0557743619378
        z: 0.666628991574
      orientation: 
        x: 0.703055318065
        y: 0.703659590173
        z: 0.0966827228074
        w: 0.0350549854935
---
header: 
  seq: 284
  stamp: 
    secs: 1467883333
    nsecs: 167140715
  frame_id: camera_rgb_optical_frame
detections: 
  - 
    header: 
      seq: 0
      stamp: 
        secs: 1467883333
        nsecs: 167140715
      frame_id: camera_rgb_optical_frame
    id: 0
    corners2d: 
      - 
        x: 237.5
        y: 147.5
        z: 1.0
      - 
        x: 239.5
        y: 234.5
        z: 1.0
      - 
        x: 323.5
        y: 234.5
        z: 1.0
      - 
        x: 324.5
        y: 149.5
        z: 1.0
    tag_size: 0.10000000149
    pose: 
      position: 
        x: -0.0444120097214
        y: -0.0553917296141
        z: 0.6657429559
      orientation: 
        x: 0.702015409874
        y: 0.706284456019
        z: 0.082905394892
        w: -0.0382534571413
---
header: 
  seq: 285
  stamp: 
    secs: 1467883333
    nsecs: 200656645
  frame_id: camera_rgb_optical_frame
detections: 
  - 
    header: 
      seq: 0
      stamp: 
        secs: 1467883333
        nsecs: 200656645
      frame_id: camera_rgb_optical_frame
    id: 0
    corners2d: 
      - 
        x: 237.5
        y: 148.5
        z: 1.0
      - 
        x: 239.5
        y: 234.5
        z: 1.0
      - 
        x: 323.5
        y: 234.5
        z: 1.0
      - 
        x: 324.5
        y: 149.5
        z: 1.0
    tag_size: 0.10000000149
    pose: 
      position: 
        x: -0.0445760582222
        y: -0.0551042549832
        z: 0.666802486223
      orientation: 
        x: 0.70188106304
        y: 0.705390255102
        z: 0.0818306421555
        w: -0.0555995265919
---
header: 
  seq: 286
  stamp: 
    secs: 1467883333
    nsecs: 234182827
  frame_id: camera_rgb_optical_frame
detections: 
  - 
    header: 
      seq: 0
      stamp: 
        secs: 1467883333
        nsecs: 234182827
      frame_id: camera_rgb_optical_frame
    id: 0
    corners2d: 
      - 
        x: 237.5
        y: 148.5
        z: 1.0
      - 
        x: 239.5
        y: 234.5
        z: 1.0
      - 
        x: 323.5
        y: 234.5
        z: 1.0
      - 
        x: 324.5
        y: 149.5
        z: 1.0
    tag_size: 0.10000000149
    pose: 
      position: 
        x: -0.0445760582222
        y: -0.0551042549832
        z: 0.666802486223
      orientation: 
        x: 0.70188106304
        y: 0.705390255102
        z: 0.0818306421555
        w: -0.0555995265919
---
header: 
  seq: 287
  stamp: 
    secs: 1467883333
    nsecs: 267749540
  frame_id: camera_rgb_optical_frame
detections: 
  - 
    header: 
      seq: 0
      stamp: 
        secs: 1467883333
        nsecs: 267749540
      frame_id: camera_rgb_optical_frame
    id: 0
    corners2d: 
      - 
        x: 238.5
        y: 147.5
        z: 1.0
      - 
        x: 239.5
        y: 234.5
        z: 1.0
      - 
        x: 323.5
        y: 234.5
        z: 1.0
      - 
        x: 324.5
        y: 149.5
        z: 1.0
    tag_size: 0.10000000149
    pose: 
      position: 
        x: -0.0437245966838
        y: -0.0557743619378
        z: 0.666628991574
      orientation: 
        x: 0.703055318065
        y: 0.703659590173
        z: 0.0966827228074
        w: 0.0350549854935
---
header: 
  seq: 288
  stamp: 
    secs: 1467883333
    nsecs: 301214926
  frame_id: camera_rgb_optical_frame
detections: 
  - 
    header: 
      seq: 0
      stamp: 
        secs: 1467883333
        nsecs: 301214926
      frame_id: camera_rgb_optical_frame
    id: 0
    corners2d: 
      - 
        x: 238.5
        y: 147.5
        z: 1.0
      - 
        x: 239.5
        y: 234.5
        z: 1.0
      - 
        x: 323.5
        y: 234.5
        z: 1.0
      - 
        x: 324.5
        y: 149.5
        z: 1.0
    tag_size: 0.10000000149
    pose: 
      position: 
        x: -0.0437245966838
        y: -0.0557743619378
        z: 0.666628991574
      orientation: 
        x: 0.703055318065
        y: 0.703659590173
        z: 0.0966827228074
        w: 0.0350549854935
---
header: 
  seq: 289
  stamp: 
    secs: 1467883333
    nsecs: 334781401
  frame_id: camera_rgb_optical_frame
detections: 
  - 
    header: 
      seq: 0
      stamp: 
        secs: 1467883333
        nsecs: 334781401
      frame_id: camera_rgb_optical_frame
    id: 0
    corners2d: 
      - 
        x: 237.5
        y: 148.5
        z: 1.0
      - 
        x: 239.5
        y: 234.5
        z: 1.0
      - 
        x: 323.5
        y: 234.5
        z: 1.0
      - 
        x: 324.5
        y: 149.5
        z: 1.0
    tag_size: 0.10000000149
    pose: 
      position: 
        x: -0.0445760582222
        y: -0.0551042549832
        z: 0.666802486223
      orientation: 
        x: 0.70188106304
        y: 0.705390255102
        z: 0.0818306421555
        w: -0.0555995265919
---
header: 
  seq: 290
  stamp: 
    secs: 1467883333
    nsecs: 368282549
  frame_id: camera_rgb_optical_frame
detections: 
  - 
    header: 
      seq: 0
      stamp: 
        secs: 1467883333
        nsecs: 368282549
      frame_id: camera_rgb_optical_frame
    id: 0
    corners2d: 
      - 
        x: 237.5
        y: 148.5
        z: 1.0
      - 
        x: 239.5
        y: 234.5
        z: 1.0
      - 
        x: 323.5
        y: 234.5
        z: 1.0
      - 
        x: 324.5
        y: 149.5
        z: 1.0
    tag_size: 0.10000000149
    pose: 
      position: 
        x: -0.0445760582222
        y: -0.0551042549832
        z: 0.666802486223
      orientation: 
        x: 0.70188106304
        y: 0.705390255102
        z: 0.0818306421555
        w: -0.0555995265919
---
header: 
  seq: 291
  stamp: 
    secs: 1467883333
    nsecs: 401813499
  frame_id: camera_rgb_optical_frame
detections: 
  - 
    header: 
      seq: 0
      stamp: 
        secs: 1467883333
        nsecs: 401813499
      frame_id: camera_rgb_optical_frame
    id: 0
    corners2d: 
      - 
        x: 237.5
        y: 148.5
        z: 1.0
      - 
        x: 239.5
        y: 234.5
        z: 1.0
      - 
        x: 323.5
        y: 234.5
        z: 1.0
      - 
        x: 324.5
        y: 149.5
        z: 1.0
    tag_size: 0.10000000149
    pose: 
      position: 
        x: -0.0445760582222
        y: -0.0551042549832
        z: 0.666802486223
      orientation: 
        x: 0.70188106304
        y: 0.705390255102
        z: 0.0818306421555
        w: -0.0555995265919
---
header: 
  seq: 292
  stamp: 
    secs: 1467883333
    nsecs: 435329430
  frame_id: camera_rgb_optical_frame
detections: 
  - 
    header: 
      seq: 0
      stamp: 
        secs: 1467883333
        nsecs: 435329430
      frame_id: camera_rgb_optical_frame
    id: 0
    corners2d: 
      - 
        x: 237.5
        y: 148.5
        z: 1.0
      - 
        x: 239.5
        y: 234.5
        z: 1.0
      - 
        x: 323.5
        y: 234.5
        z: 1.0
      - 
        x: 324.5
        y: 149.5
        z: 1.0
    tag_size: 0.10000000149
    pose: 
      position: 
        x: -0.0445760582222
        y: -0.0551042549832
        z: 0.666802486223
      orientation: 
        x: 0.70188106304
        y: 0.705390255102
        z: 0.0818306421555
        w: -0.0555995265919
---
header: 
  seq: 293
  stamp: 
    secs: 1467883333
    nsecs: 468845360
  frame_id: camera_rgb_optical_frame
detections: 
  - 
    header: 
      seq: 0
      stamp: 
        secs: 1467883333
        nsecs: 468845360
      frame_id: camera_rgb_optical_frame
    id: 0
    corners2d: 
      - 
        x: 238.5
        y: 147.5
        z: 1.0
      - 
        x: 239.5
        y: 234.5
        z: 1.0
      - 
        x: 323.5
        y: 234.5
        z: 1.0
      - 
        x: 324.5
        y: 149.5
        z: 1.0
    tag_size: 0.10000000149
    pose: 
      position: 
        x: -0.0437245966838
        y: -0.0557743619378
        z: 0.666628991574
      orientation: 
        x: 0.703055318065
        y: 0.703659590173
        z: 0.0966827228074
        w: 0.0350549854935
---
header: 
  seq: 294
  stamp: 
    secs: 1467883333
    nsecs: 502384178
  frame_id: camera_rgb_optical_frame
detections: 
  - 
    header: 
      seq: 0
      stamp: 
        secs: 1467883333
        nsecs: 502384178
      frame_id: camera_rgb_optical_frame
    id: 0
    corners2d: 
      - 
        x: 237.5
        y: 148.5
        z: 1.0
      - 
        x: 239.5
        y: 234.5
        z: 1.0
      - 
        x: 323.5
        y: 234.5
        z: 1.0
      - 
        x: 324.5
        y: 149.5
        z: 1.0
    tag_size: 0.10000000149
    pose: 
      position: 
        x: -0.0445760582222
        y: -0.0551042549832
        z: 0.666802486223
      orientation: 
        x: 0.70188106304
        y: 0.705390255102
        z: 0.0818306421555
        w: -0.0555995265919
---
header: 
  seq: 295
  stamp: 
    secs: 1467883333
    nsecs: 535877459
  frame_id: camera_rgb_optical_frame
detections: 
  - 
    header: 
      seq: 0
      stamp: 
        secs: 1467883333
        nsecs: 535877459
      frame_id: camera_rgb_optical_frame
    id: 0
    corners2d: 
      - 
        x: 237.5
        y: 148.5
        z: 1.0
      - 
        x: 239.5
        y: 234.5
        z: 1.0
      - 
        x: 323.5
        y: 234.5
        z: 1.0
      - 
        x: 324.5
        y: 149.5
        z: 1.0
    tag_size: 0.10000000149
    pose: 
      position: 
        x: -0.0445760582222
        y: -0.0551042549832
        z: 0.666802486223
      orientation: 
        x: 0.70188106304
        y: 0.705390255102
        z: 0.0818306421555
        w: -0.0555995265919
---
header: 
  seq: 296
  stamp: 
    secs: 1467883333
    nsecs: 569378368
  frame_id: camera_rgb_optical_frame
detections: 
  - 
    header: 
      seq: 0
      stamp: 
        secs: 1467883333
        nsecs: 569378368
      frame_id: camera_rgb_optical_frame
    id: 0
    corners2d: 
      - 
        x: 237.5
        y: 148.5
        z: 1.0
      - 
        x: 239.5
        y: 234.5
        z: 1.0
      - 
        x: 323.5
        y: 234.5
        z: 1.0
      - 
        x: 324.5
        y: 149.5
        z: 1.0
    tag_size: 0.10000000149
    pose: 
      position: 
        x: -0.0445760582222
        y: -0.0551042549832
        z: 0.666802486223
      orientation: 
        x: 0.70188106304
        y: 0.705390255102
        z: 0.0818306421555
        w: -0.0555995265919
---
header: 
  seq: 297
  stamp: 
    secs: 1467883333
    nsecs: 602890722
  frame_id: camera_rgb_optical_frame
detections: 
  - 
    header: 
      seq: 0
      stamp: 
        secs: 1467883333
        nsecs: 602890722
      frame_id: camera_rgb_optical_frame
    id: 0
    corners2d: 
      - 
        x: 237.5
        y: 148.5
        z: 1.0
      - 
        x: 239.5
        y: 234.5
        z: 1.0
      - 
        x: 323.5
        y: 234.5
        z: 1.0
      - 
        x: 324.5
        y: 149.5
        z: 1.0
    tag_size: 0.10000000149
    pose: 
      position: 
        x: -0.0445760582222
        y: -0.0551042549832
        z: 0.666802486223
      orientation: 
        x: 0.70188106304
        y: 0.705390255102
        z: 0.0818306421555
        w: -0.0555995265919
---
header: 
  seq: 298
  stamp: 
    secs: 1467883333
    nsecs: 636406652
  frame_id: camera_rgb_optical_frame
detections: 
  - 
    header: 
      seq: 0
      stamp: 
        secs: 1467883333
        nsecs: 636406652
      frame_id: camera_rgb_optical_frame
    id: 0
    corners2d: 
      - 
        x: 237.5
        y: 148.5
        z: 1.0
      - 
        x: 239.5
        y: 234.5
        z: 1.0
      - 
        x: 323.5
        y: 234.5
        z: 1.0
      - 
        x: 324.5
        y: 149.5
        z: 1.0
    tag_size: 0.10000000149
    pose: 
      position: 
        x: -0.0445760582222
        y: -0.0551042549832
        z: 0.666802486223
      orientation: 
        x: 0.70188106304
        y: 0.705390255102
        z: 0.0818306421555
        w: -0.0555995265919
---
header: 
  seq: 299
  stamp: 
    secs: 1467883333
    nsecs: 669922583
  frame_id: camera_rgb_optical_frame
detections: 
  - 
    header: 
      seq: 0
      stamp: 
        secs: 1467883333
        nsecs: 669922583
      frame_id: camera_rgb_optical_frame
    id: 0
    corners2d: 
      - 
        x: 237.5
        y: 148.5
        z: 1.0
      - 
        x: 239.5
        y: 234.5
        z: 1.0
      - 
        x: 323.5
        y: 234.5
        z: 1.0
      - 
        x: 324.5
        y: 149.5
        z: 1.0
    tag_size: 0.10000000149
    pose: 
      position: 
        x: -0.0445760582222
        y: -0.0551042549832
        z: 0.666802486223
      orientation: 
        x: 0.70188106304
        y: 0.705390255102
        z: 0.0818306421555
        w: -0.0555995265919
---
header: 
  seq: 300
  stamp: 
    secs: 1467883333
    nsecs: 703438751
  frame_id: camera_rgb_optical_frame
detections: 
  - 
    header: 
      seq: 0
      stamp: 
        secs: 1467883333
        nsecs: 703438751
      frame_id: camera_rgb_optical_frame
    id: 0
    corners2d: 
      - 
        x: 237.5
        y: 148.5
        z: 1.0
      - 
        x: 239.5
        y: 234.5
        z: 1.0
      - 
        x: 323.5
        y: 234.5
        z: 1.0
      - 
        x: 324.5
        y: 149.5
        z: 1.0
    tag_size: 0.10000000149
    pose: 
      position: 
        x: -0.0445760582222
        y: -0.0551042549832
        z: 0.666802486223
      orientation: 
        x: 0.70188106304
        y: 0.705390255102
        z: 0.0818306421555
        w: -0.0555995265919
---
header: 
  seq: 301
  stamp: 
    secs: 1467883333
    nsecs: 736958496
  frame_id: camera_rgb_optical_frame
detections: 
  - 
    header: 
      seq: 0
      stamp: 
        secs: 1467883333
        nsecs: 736958496
      frame_id: camera_rgb_optical_frame
    id: 0
    corners2d: 
      - 
        x: 237.5
        y: 148.5
        z: 1.0
      - 
        x: 239.5
        y: 234.5
        z: 1.0
      - 
        x: 323.5
        y: 234.5
        z: 1.0
      - 
        x: 324.5
        y: 149.5
        z: 1.0
    tag_size: 0.10000000149
    pose: 
      position: 
        x: -0.0445760582222
        y: -0.0551042549832
        z: 0.666802486223
      orientation: 
        x: 0.70188106304
        y: 0.705390255102
        z: 0.0818306421555
        w: -0.0555995265919
---
header: 
  seq: 302
  stamp: 
    secs: 1467883333
    nsecs: 770470612
  frame_id: camera_rgb_optical_frame
detections: 
  - 
    header: 
      seq: 0
      stamp: 
        secs: 1467883333
        nsecs: 770470612
      frame_id: camera_rgb_optical_frame
    id: 0
    corners2d: 
      - 
        x: 238.5
        y: 147.5
        z: 1.0
      - 
        x: 239.5
        y: 234.5
        z: 1.0
      - 
        x: 323.5
        y: 234.5
        z: 1.0
      - 
        x: 324.5
        y: 149.5
        z: 1.0
    tag_size: 0.10000000149
    pose: 
      position: 
        x: -0.0437245966838
        y: -0.0557743619378
        z: 0.666628991574
      orientation: 
        x: 0.703055318065
        y: 0.703659590173
        z: 0.0966827228074
        w: 0.0350549854935
---
header: 
  seq: 303
  stamp: 
    secs: 1467883333
    nsecs: 803986542
  frame_id: camera_rgb_optical_frame
detections: 
  - 
    header: 
      seq: 0
      stamp: 
        secs: 1467883333
        nsecs: 803986542
      frame_id: camera_rgb_optical_frame
    id: 0
    corners2d: 
      - 
        x: 237.5
        y: 148.5
        z: 1.0
      - 
        x: 239.5
        y: 234.5
        z: 1.0
      - 
        x: 323.5
        y: 234.5
        z: 1.0
      - 
        x: 324.5
        y: 149.5
        z: 1.0
    tag_size: 0.10000000149
    pose: 
      position: 
        x: -0.0445760582222
        y: -0.0551042549832
        z: 0.666802486223
      orientation: 
        x: 0.70188106304
        y: 0.705390255102
        z: 0.0818306421555
        w: -0.0555995265919
---
header: 
  seq: 304
  stamp: 
    secs: 1467883333
    nsecs: 837502710
  frame_id: camera_rgb_optical_frame
detections: 
  - 
    header: 
      seq: 0
      stamp: 
        secs: 1467883333
        nsecs: 837502710
      frame_id: camera_rgb_optical_frame
    id: 0
    corners2d: 
      - 
        x: 237.5
        y: 148.5
        z: 1.0
      - 
        x: 239.5
        y: 234.5
        z: 1.0
      - 
        x: 323.5
        y: 234.5
        z: 1.0
      - 
        x: 324.5
        y: 149.5
        z: 1.0
    tag_size: 0.10000000149
    pose: 
      position: 
        x: -0.0445760582222
        y: -0.0551042549832
        z: 0.666802486223
      orientation: 
        x: 0.70188106304
        y: 0.705390255102
        z: 0.0818306421555
        w: -0.0555995265919
---
header: 
  seq: 305
  stamp: 
    secs: 1467883333
    nsecs: 871018641
  frame_id: camera_rgb_optical_frame
detections: 
  - 
    header: 
      seq: 0
      stamp: 
        secs: 1467883333
        nsecs: 871018641
      frame_id: camera_rgb_optical_frame
    id: 0
    corners2d: 
      - 
        x: 238.5
        y: 147.5
        z: 1.0
      - 
        x: 239.5
        y: 234.5
        z: 1.0
      - 
        x: 323.5
        y: 234.5
        z: 1.0
      - 
        x: 324.5
        y: 149.5
        z: 1.0
    tag_size: 0.10000000149
    pose: 
      position: 
        x: -0.0437245966838
        y: -0.0557743619378
        z: 0.666628991574
      orientation: 
        x: 0.703055318065
        y: 0.703659590173
        z: 0.0966827228074
        w: 0.0350549854935
---
header: 
  seq: 306
  stamp: 
    secs: 1467883333
    nsecs: 904499046
  frame_id: camera_rgb_optical_frame
detections: 
  - 
    header: 
      seq: 0
      stamp: 
        secs: 1467883333
        nsecs: 904499046
      frame_id: camera_rgb_optical_frame
    id: 0
    corners2d: 
      - 
        x: 238.5
        y: 147.5
        z: 1.0
      - 
        x: 239.5
        y: 234.5
        z: 1.0
      - 
        x: 323.5
        y: 234.5
        z: 1.0
      - 
        x: 324.5
        y: 149.5
        z: 1.0
    tag_size: 0.10000000149
    pose: 
      position: 
        x: -0.0437245966838
        y: -0.0557743619378
        z: 0.666628991574
      orientation: 
        x: 0.703055318065
        y: 0.703659590173
        z: 0.0966827228074
        w: 0.0350549854935
---
header: 
  seq: 307
  stamp: 
    secs: 1467883333
    nsecs: 938015215
  frame_id: camera_rgb_optical_frame
detections: 
  - 
    header: 
      seq: 0
      stamp: 
        secs: 1467883333
        nsecs: 938015215
      frame_id: camera_rgb_optical_frame
    id: 0
    corners2d: 
      - 
        x: 238.5
        y: 147.5
        z: 1.0
      - 
        x: 239.5
        y: 234.5
        z: 1.0
      - 
        x: 323.5
        y: 234.5
        z: 1.0
      - 
        x: 324.5
        y: 149.5
        z: 1.0
    tag_size: 0.10000000149
    pose: 
      position: 
        x: -0.0437245966838
        y: -0.0557743619378
        z: 0.666628991574
      orientation: 
        x: 0.703055318065
        y: 0.703659590173
        z: 0.0966827228074
        w: 0.0350549854935
---
header: 
  seq: 308
  stamp: 
    secs: 1467883333
    nsecs: 971531145
  frame_id: camera_rgb_optical_frame
detections: 
  - 
    header: 
      seq: 0
      stamp: 
        secs: 1467883333
        nsecs: 971531145
      frame_id: camera_rgb_optical_frame
    id: 0
    corners2d: 
      - 
        x: 237.5
        y: 147.5
        z: 1.0
      - 
        x: 239.5
        y: 234.5
        z: 1.0
      - 
        x: 323.5
        y: 234.5
        z: 1.0
      - 
        x: 324.5
        y: 149.5
        z: 1.0
    tag_size: 0.10000000149
    pose: 
      position: 
        x: -0.0444120097214
        y: -0.0553917296141
        z: 0.6657429559
      orientation: 
        x: 0.702015409874
        y: 0.706284456019
        z: 0.082905394892
        w: -0.0382534571413
---
header: 
  seq: 309
  stamp: 
    secs: 1467883334
    nsecs:   5047075
  frame_id: camera_rgb_optical_frame
detections: 
  - 
    header: 
      seq: 0
      stamp: 
        secs: 1467883334
        nsecs:   5047075
      frame_id: camera_rgb_optical_frame
    id: 0
    corners2d: 
      - 
        x: 237.5
        y: 148.5
        z: 1.0
      - 
        x: 239.5
        y: 234.5
        z: 1.0
      - 
        x: 323.5
        y: 234.5
        z: 1.0
      - 
        x: 324.5
        y: 149.5
        z: 1.0
    tag_size: 0.10000000149
    pose: 
      position: 
        x: -0.0445760582222
        y: -0.0551042549832
        z: 0.666802486223
      orientation: 
        x: 0.70188106304
        y: 0.705390255102
        z: 0.0818306421555
        w: -0.0555995265919
---
header: 
  seq: 310
  stamp: 
    secs: 1467883334
    nsecs:  38631670
  frame_id: camera_rgb_optical_frame
detections: 
  - 
    header: 
      seq: 0
      stamp: 
        secs: 1467883334
        nsecs:  38631670
      frame_id: camera_rgb_optical_frame
    id: 0
    corners2d: 
      - 
        x: 238.5
        y: 147.5
        z: 1.0
      - 
        x: 239.5
        y: 234.5
        z: 1.0
      - 
        x: 323.5
        y: 234.5
        z: 1.0
      - 
        x: 324.5
        y: 149.5
        z: 1.0
    tag_size: 0.10000000149
    pose: 
      position: 
        x: -0.0437245966838
        y: -0.0557743619378
        z: 0.666628991574
      orientation: 
        x: 0.703055318065
        y: 0.703659590173
        z: 0.0966827228074
        w: 0.0350549854935
---
header: 
  seq: 311
  stamp: 
    secs: 1467883334
    nsecs:  72332851
  frame_id: camera_rgb_optical_frame
detections: 
  - 
    header: 
      seq: 0
      stamp: 
        secs: 1467883334
        nsecs:  72332851
      frame_id: camera_rgb_optical_frame
    id: 0
    corners2d: 
      - 
        x: 238.5
        y: 147.5
        z: 1.0
      - 
        x: 239.5
        y: 234.5
        z: 1.0
      - 
        x: 323.5
        y: 234.5
        z: 1.0
      - 
        x: 324.5
        y: 149.5
        z: 1.0
    tag_size: 0.10000000149
    pose: 
      position: 
        x: -0.0437245966838
        y: -0.0557743619378
        z: 0.666628991574
      orientation: 
        x: 0.703055318065
        y: 0.703659590173
        z: 0.0966827228074
        w: 0.0350549854935
---
header: 
  seq: 312
  stamp: 
    secs: 1467883334
    nsecs: 105848782
  frame_id: camera_rgb_optical_frame
detections: 
  - 
    header: 
      seq: 0
      stamp: 
        secs: 1467883334
        nsecs: 105848782
      frame_id: camera_rgb_optical_frame
    id: 0
    corners2d: 
      - 
        x: 238.5
        y: 147.5
        z: 1.0
      - 
        x: 239.5
        y: 234.5
        z: 1.0
      - 
        x: 323.5
        y: 234.5
        z: 1.0
      - 
        x: 324.5
        y: 149.5
        z: 1.0
    tag_size: 0.10000000149
    pose: 
      position: 
        x: -0.0437245966838
        y: -0.0557743619378
        z: 0.666628991574
      orientation: 
        x: 0.703055318065
        y: 0.703659590173
        z: 0.0966827228074
        w: 0.0350549854935
---
header: 
  seq: 313
  stamp: 
    secs: 1467883334
    nsecs: 139364712
  frame_id: camera_rgb_optical_frame
detections: 
  - 
    header: 
      seq: 0
      stamp: 
        secs: 1467883334
        nsecs: 139364712
      frame_id: camera_rgb_optical_frame
    id: 0
    corners2d: 
      - 
        x: 238.5
        y: 147.5
        z: 1.0
      - 
        x: 239.5
        y: 234.5
        z: 1.0
      - 
        x: 323.5
        y: 234.5
        z: 1.0
      - 
        x: 324.5
        y: 149.5
        z: 1.0
    tag_size: 0.10000000149
    pose: 
      position: 
        x: -0.0437245966838
        y: -0.0557743619378
        z: 0.666628991574
      orientation: 
        x: 0.703055318065
        y: 0.703659590173
        z: 0.0966827228074
        w: 0.0350549854935
---
header: 
  seq: 314
  stamp: 
    secs: 1467883334
    nsecs: 172733061
  frame_id: camera_rgb_optical_frame
detections: 
  - 
    header: 
      seq: 0
      stamp: 
        secs: 1467883334
        nsecs: 172733061
      frame_id: camera_rgb_optical_frame
    id: 0
    corners2d: 
      - 
        x: 237.5
        y: 148.5
        z: 1.0
      - 
        x: 239.5
        y: 234.5
        z: 1.0
      - 
        x: 323.5
        y: 234.5
        z: 1.0
      - 
        x: 324.5
        y: 149.5
        z: 1.0
    tag_size: 0.10000000149
    pose: 
      position: 
        x: -0.0445760582222
        y: -0.0551042549832
        z: 0.666802486223
      orientation: 
        x: 0.70188106304
        y: 0.705390255102
        z: 0.0818306421555
        w: -0.0555995265919
---
header: 
  seq: 315
  stamp: 
    secs: 1467883334
    nsecs: 206396811
  frame_id: camera_rgb_optical_frame
detections: 
  - 
    header: 
      seq: 0
      stamp: 
        secs: 1467883334
        nsecs: 206396811
      frame_id: camera_rgb_optical_frame
    id: 0
    corners2d: 
      - 
        x: 238.5
        y: 147.5
        z: 1.0
      - 
        x: 239.5
        y: 234.5
        z: 1.0
      - 
        x: 323.5
        y: 234.5
        z: 1.0
      - 
        x: 324.5
        y: 149.5
        z: 1.0
    tag_size: 0.10000000149
    pose: 
      position: 
        x: -0.0437245966838
        y: -0.0557743619378
        z: 0.666628991574
      orientation: 
        x: 0.703055318065
        y: 0.703659590173
        z: 0.0966827228074
        w: 0.0350549854935
---
header: 
  seq: 316
  stamp: 
    secs: 1467883334
    nsecs: 239912741
  frame_id: camera_rgb_optical_frame
detections: 
  - 
    header: 
      seq: 0
      stamp: 
        secs: 1467883334
        nsecs: 239912741
      frame_id: camera_rgb_optical_frame
    id: 0
    corners2d: 
      - 
        x: 237.5
        y: 148.5
        z: 1.0
      - 
        x: 239.5
        y: 235.5
        z: 1.0
      - 
        x: 323.5
        y: 234.5
        z: 1.0
      - 
        x: 324.5
        y: 149.5
        z: 1.0
    tag_size: 0.10000000149
    pose: 
      position: 
        x: -0.0440509959608
        y: -0.054792504504
        z: 0.665003489197
      orientation: 
        x: 0.704275795669
        y: 0.701637391666
        z: 0.108080030875
        w: -0.00439103364987
---
header: 
  seq: 317
  stamp: 
    secs: 1467883334
    nsecs: 273521654
  frame_id: camera_rgb_optical_frame
detections: 
  - 
    header: 
      seq: 0
      stamp: 
        secs: 1467883334
        nsecs: 273521654
      frame_id: camera_rgb_optical_frame
    id: 0
    corners2d: 
      - 
        x: 237.5
        y: 148.5
        z: 1.0
      - 
        x: 239.5
        y: 234.5
        z: 1.0
      - 
        x: 323.5
        y: 234.5
        z: 1.0
      - 
        x: 324.5
        y: 149.5
        z: 1.0
    tag_size: 0.10000000149
    pose: 
      position: 
        x: -0.0445760582222
        y: -0.0551042549832
        z: 0.666802486223
      orientation: 
        x: 0.70188106304
        y: 0.705390255102
        z: 0.0818306421555
        w: -0.0555995265919
---
header: 
  seq: 318
  stamp: 
    secs: 1467883334
    nsecs: 307037823
  frame_id: camera_rgb_optical_frame
detections: 
  - 
    header: 
      seq: 0
      stamp: 
        secs: 1467883334
        nsecs: 307037823
      frame_id: camera_rgb_optical_frame
    id: 0
    corners2d: 
      - 
        x: 237.5
        y: 149.5
        z: 1.0
      - 
        x: 239.5
        y: 234.5
        z: 1.0
      - 
        x: 323.5
        y: 233.5
        z: 1.0
      - 
        x: 324.5
        y: 149.5
        z: 1.0
    tag_size: 0.10000000149
    pose: 
      position: 
        x: -0.0444755785895
        y: -0.0550817232655
        z: 0.668569405152
      orientation: 
        x: 0.701663715785
        y: 0.700409523955
        z: 0.119937495968
        w: -0.052053105236
---
header: 
  seq: 319
  stamp: 
    secs: 1467883334
    nsecs: 340460770
  frame_id: camera_rgb_optical_frame
detections: 
  - 
    header: 
      seq: 0
      stamp: 
        secs: 1467883334
        nsecs: 340460770
      frame_id: camera_rgb_optical_frame
    id: 0
    corners2d: 
      - 
        x: 238.5
        y: 149.5
        z: 1.0
      - 
        x: 239.5
        y: 234.5
        z: 1.0
      - 
        x: 322.5
        y: 234.5
        z: 1.0
      - 
        x: 324.5
        y: 151.5
        z: 1.0
    tag_size: 0.10000000149
    pose: 
      position: 
        x: -0.0449461036941
        y: -0.0549078730751
        z: 0.675745767486
      orientation: 
        x: 0.69795839443
        y: 0.706331989173
        z: 0.11143617444
        w: -0.0391302918701
---
header: 
  seq: 320
  stamp: 
    secs: 1467883334
    nsecs: 373976700
  frame_id: camera_rgb_optical_frame
detections: 
  - 
    header: 
      seq: 0
      stamp: 
        secs: 1467883334
        nsecs: 373976700
      frame_id: camera_rgb_optical_frame
    id: 0
    corners2d: 
      - 
        x: 238.5
        y: 149.5
        z: 1.0
      - 
        x: 239.5
        y: 234.5
        z: 1.0
      - 
        x: 322.5
        y: 234.5
        z: 1.0
      - 
        x: 323.5
        y: 150.5
        z: 1.0
    tag_size: 0.10000000149
    pose: 
      position: 
        x: -0.0454839753767
        y: -0.0557211480181
        z: 0.678449400113
      orientation: 
        x: 0.703557026432
        y: 0.706300922678
        z: 0.0766138489655
        w: -0.016638369191
---
header: 
  seq: 321
  stamp: 
    secs: 1467883334
    nsecs: 407492868
  frame_id: camera_rgb_optical_frame
detections: 
  - 
    header: 
      seq: 0
      stamp: 
        secs: 1467883334
        nsecs: 407492868
      frame_id: camera_rgb_optical_frame
    id: 0
    corners2d: 
      - 
        x: 238.5
        y: 149.5
        z: 1.0
      - 
        x: 239.5
        y: 234.5
        z: 1.0
      - 
        x: 322.5
        y: 234.5
        z: 1.0
      - 
        x: 323.5
        y: 151.5
        z: 1.0
    tag_size: 0.10000000149
    pose: 
      position: 
        x: -0.0454802332847
        y: -0.0555674038928
        z: 0.680084155957
      orientation: 
        x: 0.702449261342
        y: 0.706340442301
        z: 0.0873499543904
        w: -0.00426617834976
---
header: 
  seq: 322
  stamp: 
    secs: 1467883334
    nsecs: 440882675
  frame_id: camera_rgb_optical_frame
detections: 
  - 
    header: 
      seq: 0
      stamp: 
        secs: 1467883334
        nsecs: 440882675
      frame_id: camera_rgb_optical_frame
    id: 0
    corners2d: 
      - 
        x: 239.5
        y: 150.5
        z: 1.0
      - 
        x: 240.5
        y: 234.5
        z: 1.0
      - 
        x: 322.5
        y: 234.5
        z: 1.0
      - 
        x: 322.5
        y: 151.5
        z: 1.0
    tag_size: 0.10000000149
    pose: 
      position: 
        x: -0.0455655997323
        y: -0.0561564549587
        z: 0.687756539345
      orientation: 
        x: 0.706227505382
        y: 0.703155429457
        z: 0.0755093664584
        w: 0.0333689712678
---
header: 
  seq: 323
  stamp: 
    secs: 1467883334
    nsecs: 474376909
  frame_id: camera_rgb_optical_frame
detections: 
  - 
    header: 
      seq: 0
      stamp: 
        secs: 1467883334
        nsecs: 474376909
      frame_id: camera_rgb_optical_frame
    id: 0
    corners2d: 
      - 
        x: 239.5
        y: 151.5
        z: 1.0
      - 
        x: 240.5
        y: 234.5
        z: 1.0
      - 
        x: 322.5
        y: 234.5
        z: 1.0
      - 
        x: 322.5
        y: 151.5
        z: 1.0
    tag_size: 0.10000000149
    pose: 
      position: 
        x: -0.0463252829432
        y: -0.0559497619931
        z: 0.690041674546
      orientation: 
        x: 0.706309202803
        y: 0.706586036714
        z: 0.0253066303535
        w: -0.0349722349443
---
header: 
  seq: 324
  stamp: 
    secs: 1467883334
    nsecs: 507893078
  frame_id: camera_rgb_optical_frame
detections: 
  - 
    header: 
      seq: 0
      stamp: 
        secs: 1467883334
        nsecs: 507893078
      frame_id: camera_rgb_optical_frame
    id: 0
    corners2d: 
      - 
        x: 239.5
        y: 151.5
        z: 1.0
      - 
        x: 241.5
        y: 234.5
        z: 1.0
      - 
        x: 322.5
        y: 234.5
        z: 1.0
      - 
        x: 322.5
        y: 152.5
        z: 1.0
    tag_size: 0.10000000149
    pose: 
      position: 
        x: -0.0462114332555
        y: -0.0555993671874
        z: 0.693015657861
      orientation: 
        x: 0.70354507711
        y: 0.705702537836
        z: 0.0548698050337
        w: -0.0632262371281
---
header: 
  seq: 325
  stamp: 
    secs: 1467883334
    nsecs: 541376345
  frame_id: camera_rgb_optical_frame
detections: 
  - 
    header: 
      seq: 0
      stamp: 
        secs: 1467883334
        nsecs: 541376345
      frame_id: camera_rgb_optical_frame
    id: 0
    corners2d: 
      - 
        x: 239.5
        y: 152.5
        z: 1.0
      - 
        x: 241.5
        y: 234.5
        z: 1.0
      - 
        x: 322.5
        y: 233.5
        z: 1.0
      - 
        x: 322.5
        y: 153.5
        z: 1.0
    tag_size: 0.10000000149
    pose: 
      position: 
        x: -0.0462843893277
        y: -0.0555663511709
        z: 0.698479247838
      orientation: 
        x: 0.703047413638
        y: 0.701900989012
        z: 0.101733236917
        w: -0.0520546281061
---
header: 
  seq: 326
  stamp: 
    secs: 1467883334
    nsecs: 574892275
  frame_id: camera_rgb_optical_frame
detections: 
  - 
    header: 
      seq: 0
      stamp: 
        secs: 1467883334
        nsecs: 574892275
      frame_id: camera_rgb_optical_frame
    id: 0
    corners2d: 
      - 
        x: 239.5
        y: 152.5
        z: 1.0
      - 
        x: 241.5
        y: 234.5
        z: 1.0
      - 
        x: 322.5
        y: 233.5
        z: 1.0
      - 
        x: 322.5
        y: 153.5
        z: 1.0
    tag_size: 0.10000000149
    pose: 
      position: 
        x: -0.0462843893277
        y: -0.0555663511709
        z: 0.698479247838
      orientation: 
        x: 0.703047413638
        y: 0.701900989012
        z: 0.101733236917
        w: -0.0520546281061
---
header: 
  seq: 327
  stamp: 
    secs: 1467883334
    nsecs: 608440868
  frame_id: camera_rgb_optical_frame
detections: 
  - 
    header: 
      seq: 0
      stamp: 
        secs: 1467883334
        nsecs: 608440868
      frame_id: camera_rgb_optical_frame
    id: 0
    corners2d: 
      - 
        x: 240.5
        y: 153.5
        z: 1.0
      - 
        x: 241.5
        y: 234.5
        z: 1.0
      - 
        x: 322.5
        y: 233.5
        z: 1.0
      - 
        x: 322.5
        y: 153.5
        z: 1.0
    tag_size: 0.10000000149
    pose: 
      position: 
        x: -0.0462804913851
        y: -0.0558476255671
        z: 0.704205581232
      orientation: 
        x: 0.70480856017
        y: 0.702086096496
        z: 0.0966280340203
        w: -0.0313533038017
---
header: 
  seq: 328
  stamp: 
    secs: 1467883334
    nsecs: 641957037
  frame_id: camera_rgb_optical_frame
detections: 
  - 
    header: 
      seq: 0
      stamp: 
        secs: 1467883334
        nsecs: 641957037
      frame_id: camera_rgb_optical_frame
    id: 0
    corners2d: 
      - 
        x: 240.5
        y: 153.5
        z: 1.0
      - 
        x: 241.5
        y: 234.5
        z: 1.0
      - 
        x: 321.5
        y: 234.5
        z: 1.0
