header: 
  seq: 0
  stamp: 
    secs: 1462800791
    nsecs: 455327026
  frame_id: camera_rgb_optical_frame
detections: []
---
header: 
  seq: 1
  stamp: 
    secs: 1462800791
    nsecs: 518540136
  frame_id: camera_rgb_optical_frame
detections: []
---
header: 
  seq: 2
  stamp: 
    secs: 1462800791
    nsecs: 556995623
  frame_id: camera_rgb_optical_frame
detections: []
---
header: 
  seq: 3
  stamp: 
    secs: 1462800791
    nsecs: 590511553
  frame_id: camera_rgb_optical_frame
detections: []
---
header: 
  seq: 4
  stamp: 
    secs: 1462800791
    nsecs: 624027483
  frame_id: camera_rgb_optical_frame
detections: []
---
header: 
  seq: 5
  stamp: 
    secs: 1462800791
    nsecs: 657543652
  frame_id: camera_rgb_optical_frame
detections: []
---
header: 
  seq: 6
  stamp: 
    secs: 1462800791
    nsecs: 691071980
  frame_id: camera_rgb_optical_frame
detections: []
---
header: 
  seq: 7
  stamp: 
    secs: 1462800791
    nsecs: 724587910
  frame_id: camera_rgb_optical_frame
detections: []
---
header: 
  seq: 8
  stamp: 
    secs: 1462800791
    nsecs: 758213989
  frame_id: camera_rgb_optical_frame
detections: []
---
header: 
  seq: 9
  stamp: 
    secs: 1462800791
    nsecs: 791733257
  frame_id: camera_rgb_optical_frame
detections: []
---
header: 
  seq: 10
  stamp: 
    secs: 1462800791
    nsecs: 825245850
  frame_id: camera_rgb_optical_frame
detections: []
---
header: 
  seq: 11
  stamp: 
    secs: 1462800791
    nsecs: 858761780
  frame_id: camera_rgb_optical_frame
detections: []
---
header: 
  seq: 12
  stamp: 
    secs: 1462800791
    nsecs: 892277948
  frame_id: camera_rgb_optical_frame
detections: []
---
header: 
  seq: 13
  stamp: 
    secs: 1462800791
    nsecs: 925793879
  frame_id: camera_rgb_optical_frame
detections: []
---
header: 
  seq: 14
  stamp: 
    secs: 1462800791
    nsecs: 959313147
  frame_id: camera_rgb_optical_frame
detections: []
---
header: 
  seq: 15
  stamp: 
    secs: 1462800791
    nsecs: 992829315
  frame_id: camera_rgb_optical_frame
detections: []
---
header: 
  seq: 16
  stamp: 
    secs: 1462800792
    nsecs:  26345245
  frame_id: camera_rgb_optical_frame
detections: []
---
header: 
  seq: 17
  stamp: 
    secs: 1462800792
    nsecs:  59926502
  frame_id: camera_rgb_optical_frame
detections: []
---
header: 
  seq: 18
  stamp: 
    secs: 1462800792
    nsecs:  93527071
  frame_id: camera_rgb_optical_frame
detections: []
---
header: 
  seq: 19
  stamp: 
    secs: 1462800792
    nsecs: 127238981
  frame_id: camera_rgb_optical_frame
detections: []
---
header: 
  seq: 20
  stamp: 
    secs: 1462800792
    nsecs: 160754911
  frame_id: camera_rgb_optical_frame
detections: []
---
header: 
  seq: 21
  stamp: 
    secs: 1462800792
    nsecs: 194437496
  frame_id: camera_rgb_optical_frame
detections: []
---
header: 
  seq: 22
  stamp: 
    secs: 1462800792
    nsecs: 227787010
  frame_id: camera_rgb_optical_frame
detections: []
---
header: 
  seq: 23
  stamp: 
    secs: 1462800792
    nsecs: 261302940
  frame_id: camera_rgb_optical_frame
detections: []
---
header: 
  seq: 24
  stamp: 
    secs: 1462800792
    nsecs: 294818871
  frame_id: camera_rgb_optical_frame
detections: []
---
header: 
  seq: 25
  stamp: 
    secs: 1462800792
    nsecs: 328375332
  frame_id: camera_rgb_optical_frame
detections: []
---
header: 
  seq: 26
  stamp: 
    secs: 1462800792
    nsecs: 361891262
  frame_id: camera_rgb_optical_frame
detections: []
---
header: 
  seq: 27
  stamp: 
    secs: 1462800792
    nsecs: 395407192
  frame_id: camera_rgb_optical_frame
detections: []
---
header: 
  seq: 28
  stamp: 
    secs: 1462800792
    nsecs: 428923122
  frame_id: camera_rgb_optical_frame
detections: []
---
header: 
  seq: 29
  stamp: 
    secs: 1462800792
    nsecs: 462439291
  frame_id: camera_rgb_optical_frame
detections: []
---
header: 
  seq: 30
  stamp: 
    secs: 1462800792
    nsecs: 495955221
  frame_id: camera_rgb_optical_frame
detections: []
---
header: 
  seq: 31
  stamp: 
    secs: 1462800792
    nsecs: 529550783
  frame_id: camera_rgb_optical_frame
detections: []
---
header: 
  seq: 32
  stamp: 
    secs: 1462800792
    nsecs: 563066952
  frame_id: camera_rgb_optical_frame
detections: []
---
header: 
  seq: 33
  stamp: 
    secs: 1462800792
    nsecs: 596503250
  frame_id: camera_rgb_optical_frame
detections: []
---
header: 
  seq: 34
  stamp: 
    secs: 1462800792
    nsecs: 630019180
  frame_id: camera_rgb_optical_frame
detections: []
---
header: 
  seq: 35
  stamp: 
    secs: 1462800792
    nsecs: 663535110
  frame_id: camera_rgb_optical_frame
detections: []
---
header: 
  seq: 36
  stamp: 
    secs: 1462800792
    nsecs: 697051279
  frame_id: camera_rgb_optical_frame
detections: []
---
header: 
  seq: 37
  stamp: 
    secs: 1462800792
    nsecs: 730567209
  frame_id: camera_rgb_optical_frame
detections: []
---
header: 
  seq: 38
  stamp: 
    secs: 1462800792
    nsecs: 764162771
  frame_id: camera_rgb_optical_frame
detections: []
---
header: 
  seq: 39
  stamp: 
    secs: 1462800792
    nsecs: 797815554
  frame_id: camera_rgb_optical_frame
detections: []
---
header: 
  seq: 40
  stamp: 
    secs: 1462800792
    nsecs: 831331484
  frame_id: camera_rgb_optical_frame
detections: []
---
header: 
  seq: 41
  stamp: 
    secs: 1462800792
    nsecs: 864847414
  frame_id: camera_rgb_optical_frame
detections: []
---
header: 
  seq: 42
  stamp: 
    secs: 1462800792
    nsecs: 898363583
  frame_id: camera_rgb_optical_frame
detections: []
---
header: 
  seq: 43
  stamp: 
    secs: 1462800792
    nsecs: 931879513
  frame_id: camera_rgb_optical_frame
detections: []
---
header: 
  seq: 44
  stamp: 
    secs: 1462800792
    nsecs: 965395443
  frame_id: camera_rgb_optical_frame
detections: []
---
header: 
  seq: 45
  stamp: 
    secs: 1462800792
    nsecs: 998911373
  frame_id: camera_rgb_optical_frame
detections: []
---
header: 
  seq: 46
  stamp: 
    secs: 1462800793
    nsecs:  32427542
  frame_id: camera_rgb_optical_frame
detections: []
---
header: 
  seq: 47
  stamp: 
    secs: 1462800793
    nsecs:  65816395
  frame_id: camera_rgb_optical_frame
detections: []
---
header: 
  seq: 48
  stamp: 
    secs: 1462800793
    nsecs:  99332325
  frame_id: camera_rgb_optical_frame
detections: []
---
header: 
  seq: 49
  stamp: 
    secs: 1462800793
    nsecs: 132830374
  frame_id: camera_rgb_optical_frame
detections: []
---
header: 
  seq: 50
  stamp: 
    secs: 1462800793
    nsecs: 166346304
  frame_id: camera_rgb_optical_frame
detections: []
---
header: 
  seq: 51
  stamp: 
    secs: 1462800793
    nsecs: 199862234
  frame_id: camera_rgb_optical_frame
detections: []
---
header: 
  seq: 52
  stamp: 
    secs: 1462800793
    nsecs: 233396284
  frame_id: camera_rgb_optical_frame
detections: []
---
header: 
  seq: 53
  stamp: 
    secs: 1462800793
    nsecs: 266912453
  frame_id: camera_rgb_optical_frame
detections: []
---
header: 
  seq: 54
  stamp: 
    secs: 1462800793
    nsecs: 300428383
  frame_id: camera_rgb_optical_frame
detections: []
---
header: 
  seq: 55
  stamp: 
    secs: 1462800793
    nsecs: 333944313
  frame_id: camera_rgb_optical_frame
detections: []
---
header: 
  seq: 56
  stamp: 
    secs: 1462800793
    nsecs: 367593281
  frame_id: camera_rgb_optical_frame
detections: []
---
header: 
  seq: 57
  stamp: 
    secs: 1462800793
    nsecs: 401161425
  frame_id: camera_rgb_optical_frame
detections: []
---
header: 
  seq: 58
  stamp: 
    secs: 1462800793
    nsecs: 434781782
  frame_id: camera_rgb_optical_frame
detections: []
---
header: 
  seq: 59
  stamp: 
    secs: 1462800793
    nsecs: 468193523
  frame_id: camera_rgb_optical_frame
detections: []
---
header: 
  seq: 60
  stamp: 
    secs: 1462800793
    nsecs: 501657240
  frame_id: camera_rgb_optical_frame
detections: []
---
header: 
  seq: 61
  stamp: 
    secs: 1462800793
    nsecs: 534959070
  frame_id: camera_rgb_optical_frame
detections: []
---
header: 
  seq: 62
  stamp: 
    secs: 1462800793
    nsecs: 568475000
  frame_id: camera_rgb_optical_frame
detections: []
---
header: 
  seq: 63
  stamp: 
    secs: 1462800793
    nsecs: 602107279
  frame_id: camera_rgb_optical_frame
detections: []
---
header: 
  seq: 64
  stamp: 
    secs: 1462800793
    nsecs: 635623209
  frame_id: camera_rgb_optical_frame
detections: []
---
header: 
  seq: 65
  stamp: 
    secs: 1462800793
    nsecs: 669139139
  frame_id: camera_rgb_optical_frame
detections: []
---
header: 
  seq: 66
  stamp: 
    secs: 1462800793
    nsecs: 702482693
  frame_id: camera_rgb_optical_frame
detections: []
---
header: 
  seq: 67
  stamp: 
    secs: 1462800793
    nsecs: 735847942
  frame_id: camera_rgb_optical_frame
detections: []
---
header: 
  seq: 68
  stamp: 
    secs: 1462800793
    nsecs: 769363873
  frame_id: camera_rgb_optical_frame
detections: []
---
header: 
  seq: 69
  stamp: 
    secs: 1462800793
    nsecs: 802854053
  frame_id: camera_rgb_optical_frame
detections: []
---
header: 
  seq: 70
  stamp: 
    secs: 1462800793
    nsecs: 836395971
  frame_id: camera_rgb_optical_frame
detections: []
---
header: 
  seq: 71
  stamp: 
    secs: 1462800793
    nsecs: 869886152
  frame_id: camera_rgb_optical_frame
detections: []
---
header: 
  seq: 72
  stamp: 
    secs: 1462800793
    nsecs: 903367273
  frame_id: camera_rgb_optical_frame
detections: []
---
header: 
  seq: 73
  stamp: 
    secs: 1462800793
    nsecs: 936817638
  frame_id: camera_rgb_optical_frame
detections: []
---
header: 
  seq: 74
  stamp: 
    secs: 1462800793
    nsecs: 970266096
  frame_id: camera_rgb_optical_frame
detections: []
---
header: 
  seq: 75
  stamp: 
    secs: 1462800794
    nsecs:   3782026
  frame_id: camera_rgb_optical_frame
detections: []
---
header: 
  seq: 76
  stamp: 
    secs: 1462800794
    nsecs:  37297956
  frame_id: camera_rgb_optical_frame
detections: []
---
header: 
  seq: 77
  stamp: 
    secs: 1462800794
    nsecs:  70814125
  frame_id: camera_rgb_optical_frame
detections: []
---
header: 
  seq: 78
  stamp: 
    secs: 1462800794
    nsecs: 104330055
  frame_id: camera_rgb_optical_frame
detections: []
---
header: 
  seq: 79
  stamp: 
    secs: 1462800794
    nsecs: 137845985
  frame_id: camera_rgb_optical_frame
detections: []
---
header: 
  seq: 80
  stamp: 
    secs: 1462800794
    nsecs: 171362154
  frame_id: camera_rgb_optical_frame
detections: []
---
header: 
  seq: 81
  stamp: 
    secs: 1462800794
    nsecs: 204840891
  frame_id: camera_rgb_optical_frame
detections: []
---
header: 
  seq: 82
  stamp: 
    secs: 1462800794
    nsecs: 238394014
  frame_id: camera_rgb_optical_frame
detections: []
---
header: 
  seq: 83
  stamp: 
    secs: 1462800794
    nsecs: 271910183
  frame_id: camera_rgb_optical_frame
detections: []
---
header: 
  seq: 84
  stamp: 
    secs: 1462800794
    nsecs: 305486671
  frame_id: camera_rgb_optical_frame
detections: []
---
header: 
  seq: 85
  stamp: 
    secs: 1462800794
    nsecs: 339002602
  frame_id: camera_rgb_optical_frame
detections: []
---
header: 
  seq: 86
  stamp: 
    secs: 1462800794
    nsecs: 372518532
  frame_id: camera_rgb_optical_frame
detections: []
---
header: 
  seq: 87
  stamp: 
    secs: 1462800794
    nsecs: 406034700
  frame_id: camera_rgb_optical_frame
detections: []
---
header: 
  seq: 88
  stamp: 
    secs: 1462800794
    nsecs: 439550631
  frame_id: camera_rgb_optical_frame
detections: []
---
header: 
  seq: 89
  stamp: 
    secs: 1462800794
    nsecs: 473066561
  frame_id: camera_rgb_optical_frame
detections: []
---
header: 
  seq: 90
  stamp: 
    secs: 1462800794
    nsecs: 506489269
  frame_id: camera_rgb_optical_frame
detections: []
---
header: 
  seq: 91
  stamp: 
    secs: 1462800794
    nsecs: 540005199
  frame_id: camera_rgb_optical_frame
detections: []
---
header: 
  seq: 92
  stamp: 
    secs: 1462800794
    nsecs: 573521130
  frame_id: camera_rgb_optical_frame
detections: []
---
header: 
  seq: 93
  stamp: 
    secs: 1462800794
    nsecs: 607032768
  frame_id: camera_rgb_optical_frame
detections: []
---
header: 
  seq: 94
  stamp: 
    secs: 1462800794
    nsecs: 640548937
  frame_id: camera_rgb_optical_frame
detections: []
---
header: 
  seq: 95
  stamp: 
    secs: 1462800794
    nsecs: 674069159
  frame_id: camera_rgb_optical_frame
detections: []
---
header: 
  seq: 96
  stamp: 
    secs: 1462800794
    nsecs: 707585089
  frame_id: camera_rgb_optical_frame
detections: []
---
header: 
  seq: 97
  stamp: 
    secs: 1462800794
    nsecs: 741029493
  frame_id: camera_rgb_optical_frame
detections: []
---
header: 
  seq: 98
  stamp: 
    secs: 1462800794
    nsecs: 774545424
  frame_id: camera_rgb_optical_frame
detections: []
---
header: 
  seq: 99
  stamp: 
    secs: 1462800794
    nsecs: 808061354
  frame_id: camera_rgb_optical_frame
detections: []
---
header: 
  seq: 100
  stamp: 
    secs: 1462800794
    nsecs: 841440908
  frame_id: camera_rgb_optical_frame
detections: []
---
header: 
  seq: 101
  stamp: 
    secs: 1462800794
    nsecs: 874956839
  frame_id: camera_rgb_optical_frame
detections: []
---
header: 
  seq: 102
  stamp: 
    secs: 1462800794
    nsecs: 908459656
  frame_id: camera_rgb_optical_frame
detections: []
---
header: 
  seq: 103
  stamp: 
    secs: 1462800794
    nsecs: 941988699
  frame_id: camera_rgb_optical_frame
detections: []
---
header: 
  seq: 104
  stamp: 
    secs: 1462800794
    nsecs: 975641481
  frame_id: camera_rgb_optical_frame
detections: []
---
header: 
  seq: 105
  stamp: 
    secs: 1462800795
    nsecs:   9295218
  frame_id: camera_rgb_optical_frame
detections: []
---
header: 
  seq: 106
  stamp: 
    secs: 1462800795
    nsecs:  42811148
  frame_id: camera_rgb_optical_frame
detections: []
---
header: 
  seq: 107
  stamp: 
    secs: 1462800795
    nsecs:  76327316
  frame_id: camera_rgb_optical_frame
detections: []
---
header: 
  seq: 108
  stamp: 
    secs: 1462800795
    nsecs: 109935991
  frame_id: camera_rgb_optical_frame
detections: []
---
header: 
  seq: 109
  stamp: 
    secs: 1462800795
    nsecs: 143451921
  frame_id: camera_rgb_optical_frame
detections: []
---
header: 
  seq: 110
  stamp: 
    secs: 1462800795
    nsecs: 176967852
  frame_id: camera_rgb_optical_frame
detections: []
---
header: 
  seq: 111
  stamp: 
    secs: 1462800795
    nsecs: 210515968
  frame_id: camera_rgb_optical_frame
detections: []
---
header: 
  seq: 112
  stamp: 
    secs: 1462800795
    nsecs: 244031898
  frame_id: camera_rgb_optical_frame
detections: []
---
header: 
  seq: 113
  stamp: 
    secs: 1462800795
    nsecs: 277515881
  frame_id: camera_rgb_optical_frame
detections: []
---
header: 
  seq: 114
  stamp: 
    secs: 1462800795
    nsecs: 310962669
  frame_id: camera_rgb_optical_frame
detections: []
---
header: 
  seq: 115
  stamp: 
    secs: 1462800795
    nsecs: 344478600
  frame_id: camera_rgb_optical_frame
detections: []
---
header: 
  seq: 116
  stamp: 
    secs: 1462800795
    nsecs: 377994530
  frame_id: camera_rgb_optical_frame
detections: []
---
header: 
  seq: 117
  stamp: 
    secs: 1462800795
    nsecs: 411510460
  frame_id: camera_rgb_optical_frame
detections: []
---
header: 
  seq: 118
  stamp: 
    secs: 1462800795
    nsecs: 444999210
  frame_id: camera_rgb_optical_frame
detections: []
---
header: 
  seq: 119
  stamp: 
    secs: 1462800795
    nsecs: 478485338
  frame_id: camera_rgb_optical_frame
detections: []
---
header: 
  seq: 120
  stamp: 
    secs: 1462800795
    nsecs: 511989347
  frame_id: camera_rgb_optical_frame
detections: []
---
header: 
  seq: 121
  stamp: 
    secs: 1462800795
    nsecs: 545517437
  frame_id: camera_rgb_optical_frame
detections: []
---
header: 
  seq: 122
  stamp: 
    secs: 1462800795
    nsecs: 579063169
  frame_id: camera_rgb_optical_frame
detections: []
---
header: 
  seq: 123
  stamp: 
    secs: 1462800795
    nsecs: 612549297
  frame_id: camera_rgb_optical_frame
detections: []
---
header: 
  seq: 124
  stamp: 
    secs: 1462800795
    nsecs: 646053545
  frame_id: camera_rgb_optical_frame
detections: 
  - 
    header: 
      seq: 0
      stamp: 
        secs: 1462800795
        nsecs: 646053545
      frame_id: camera_rgb_optical_frame
    id: 0
    corners2d: 
      - 
        x: 191.5
        y: 236.5
        z: 1.0
      - 
        x: 238.5
        y: 237.5
        z: 1.0
      - 
        x: 246.5
        y: 187.5
        z: 1.0
      - 
        x: 191.5
        y: 192.5
        z: 1.0
    tag_size: 0.0370000004768
    pose: 
      position: 
        x: -0.0723201199657
        y: -0.0180875800757
        z: 0.404177376213
      orientation: 
        x: 0.943971182644
        y: 0.0262616218042
        z: 0.210245814221
        w: -0.253032470567
---
header: 
  seq: 125
  stamp: 
    secs: 1462800795
    nsecs: 679569475
  frame_id: camera_rgb_optical_frame
detections: []
---
header: 
  seq: 126
  stamp: 
    secs: 1462800795
    nsecs: 713073246
  frame_id: camera_rgb_optical_frame
detections: 
  - 
    header: 
      seq: 0
      stamp: 
        secs: 1462800795
        nsecs: 713073246
      frame_id: camera_rgb_optical_frame
    id: 0
    corners2d: 
      - 
        x: 185.5
        y: 236.5
        z: 1.0
      - 
        x: 229.5
        y: 235.5
        z: 1.0
      - 
        x: 229.5
        y: 192.5
        z: 1.0
      - 
        x: 182.5
        y: 191.5
        z: 1.0
    tag_size: 0.0370000004768
    pose: 
      position: 
        x: -0.0925643750307
        y: -0.020757703551
        z: 0.468646057138
      orientation: 
        x: 0.988852363738
        y: 0.00426279211521
        z: 0.0505162773726
        w: -0.140003346582
---
header: 
  seq: 127
  stamp: 
    secs: 1462800795
    nsecs: 746589176
  frame_id: camera_rgb_optical_frame
detections: 
  - 
    header: 
      seq: 0
      stamp: 
        secs: 1462800795
        nsecs: 746589176
      frame_id: camera_rgb_optical_frame
    id: 0
    corners2d: 
      - 
        x: 183.5
        y: 234.5
        z: 1.0
      - 
        x: 226.5
        y: 236.5
        z: 1.0
      - 
        x: 226.5
        y: 191.5
        z: 1.0
      - 
        x: 181.5
        y: 191.5
        z: 1.0
    tag_size: 0.0370000004768
    pose: 
      position: 
        x: -0.0955098717452
        y: -0.0214420967223
        z: 0.473493947369
      orientation: 
        x: 0.994362773978
        y: 0.0108330912808
        z: -0.0306220847349
        w: -0.100933670233
---
header: 
  seq: 128
  stamp: 
    secs: 1462800795
    nsecs: 780011885
  frame_id: camera_rgb_optical_frame
detections: 
  - 
    header: 
      seq: 0
      stamp: 
        secs: 1462800795
        nsecs: 780011885
      frame_id: camera_rgb_optical_frame
    id: 0
    corners2d: 
      - 
        x: 183.5
        y: 234.5
        z: 1.0
      - 
        x: 226.5
        y: 234.5
        z: 1.0
      - 
        x: 224.5
        y: 191.5
        z: 1.0
      - 
        x: 179.5
        y: 191.5
        z: 1.0
    tag_size: 0.0370000004768
    pose: 
      position: 
        x: -0.0967549916102
        y: -0.0218939159113
        z: 0.475678038511
      orientation: 
        x: 0.988400181112
        y: -0.00136767081296
        z: -0.0162240099821
        w: -0.150996665377
---
header: 
  seq: 129
  stamp: 
    secs: 1462800795
    nsecs: 813527815
  frame_id: camera_rgb_optical_frame
detections: 
  - 
    header: 
      seq: 0
      stamp: 
        secs: 1462800795
        nsecs: 813527815
      frame_id: camera_rgb_optical_frame
    id: 0
    corners2d: 
      - 
        x: 181.5
        y: 236.5
        z: 1.0
      - 
        x: 224.5
        y: 236.5
        z: 1.0
      - 
        x: 222.5
        y: 193.5
        z: 1.0
      - 
        x: 179.5
        y: 193.5
        z: 1.0
    tag_size: 0.0370000004768
    pose: 
      position: 
        x: -0.10015694196
        y: -0.0207494661219
        z: 0.486038899535
      orientation: 
        x: 0.99542754889
        y: -0.00151997951696
        z: -0.021916511817
        w: -0.092958867698
---
header: 
  seq: 130
  stamp: 
    secs: 1462800795
    nsecs: 847038261
  frame_id: camera_rgb_optical_frame
detections: 
  - 
    header: 
      seq: 0
      stamp: 
        secs: 1462800795
        nsecs: 847038261
      frame_id: camera_rgb_optical_frame
    id: 0
    corners2d: 
      - 
        x: 182.5
        y: 233.5
        z: 1.0
      - 
        x: 224.5
        y: 234.5
        z: 1.0
      - 
        x: 222.5
        y: 191.5
        z: 1.0
      - 
        x: 179.5
        y: 191.5
        z: 1.0
    tag_size: 0.0370000004768
    pose: 
      position: 
        x: -0.0999625167502
        y: -0.0226210957113
        z: 0.486009721495
      orientation: 
        x: 0.990863662902
        y: 0.00248635569748
        z: -0.0442486004102
        w: -0.127377709734
---
header: 
  seq: 131
  stamp: 
    secs: 1462800795
    nsecs: 880554430
  frame_id: camera_rgb_optical_frame
detections: 
  - 
    header: 
      seq: 0
      stamp: 
        secs: 1462800795
        nsecs: 880554430
      frame_id: camera_rgb_optical_frame
    id: 0
    corners2d: 
      - 
        x: 182.5
        y: 234.5
        z: 1.0
      - 
        x: 224.5
        y: 235.5
        z: 1.0
      - 
        x: 222.5
        y: 193.5
        z: 1.0
      - 
        x: 179.5
        y: 193.5
        z: 1.0
    tag_size: 0.0370000004768
    pose: 
      position: 
        x: -0.101211320821
        y: -0.0215945372779
        z: 0.492246365366
      orientation: 
        x: 0.988627997257
        y: 0.0039274590161
        z: -0.021458885019
        w: -0.148791042606
---
header: 
  seq: 132
  stamp: 
    secs: 1462800795
    nsecs: 914070360
  frame_id: camera_rgb_optical_frame
detections: 
  - 
    header: 
      seq: 0
      stamp: 
        secs: 1462800795
        nsecs: 914070360
      frame_id: camera_rgb_optical_frame
    id: 0
    corners2d: 
      - 
        x: 181.5
        y: 234.5
        z: 1.0
      - 
        x: 222.5
        y: 236.5
        z: 1.0
      - 
        x: 222.5
        y: 194.5
        z: 1.0
      - 
        x: 179.5
        y: 193.5
        z: 1.0
    tag_size: 0.0370000004768
    pose: 
      position: 
        x: -0.102900968845
        y: -0.0214081992279
        z: 0.497249146572
      orientation: 
        x: 0.991393384783
        y: 0.0166486932707
        z: -0.0230350986065
        w: -0.127794216824
---
header: 
  seq: 133
  stamp: 
    secs: 1462800795
    nsecs: 947585814
  frame_id: camera_rgb_optical_frame
detections: 
  - 
    header: 
      seq: 0
      stamp: 
        secs: 1462800795
        nsecs: 947585814
      frame_id: camera_rgb_optical_frame
    id: 0
    corners2d: 
      - 
        x: 181.5
        y: 234.5
        z: 1.0
      - 
        x: 222.5
        y: 236.5
        z: 1.0
      - 
        x: 222.5
        y: 193.5
        z: 1.0
      - 
        x: 179.5
        y: 193.5
        z: 1.0
    tag_size: 0.0370000004768
    pose: 
      position: 
        x: -0.102588222693
        y: -0.0215889191916
        z: 0.495673733794
      orientation: 
        x: 0.994204055342
        y: 0.0112236897178
        z: -0.0312969536273
        w: -0.10223906213
---
header: 
  seq: 134
  stamp: 
    secs: 1462800795
    nsecs: 981101744
  frame_id: camera_rgb_optical_frame
detections: 
  - 
    header: 
      seq: 0
      stamp: 
        secs: 1462800795
        nsecs: 981101744
      frame_id: camera_rgb_optical_frame
    id: 0
    corners2d: 
      - 
        x: 183.5
        y: 233.5
        z: 1.0
      - 
        x: 223.5
        y: 234.5
        z: 1.0
      - 
        x: 222.5
        y: 193.5
        z: 1.0
      - 
        x: 180.5
        y: 193.5
        z: 1.0
    tag_size: 0.0370000004768
    pose: 
      position: 
        x: -0.104475409173
        y: -0.0228177724784
        z: 0.509186312499
      orientation: 
        x: 0.990991984377
        y: 0.00487587318693
        z: -0.0234494296236
        w: -0.131762046934
---
header: 
  seq: 135
  stamp: 
    secs: 1462800796
    nsecs:  14617912
  frame_id: camera_rgb_optical_frame
detections: 
  - 
    header: 
      seq: 0
      stamp: 
        secs: 1462800796
        nsecs:  14617912
      frame_id: camera_rgb_optical_frame
    id: 0
    corners2d: 
      - 
        x: 183.5
        y: 234.5
        z: 1.0
      - 
        x: 222.5
        y: 235.5
        z: 1.0
      - 
        x: 222.5
        y: 193.5
        z: 1.0
      - 
        x: 180.5
        y: 193.5
        z: 1.0
    tag_size: 0.0370000004768
    pose: 
      position: 
        x: -0.103764336481
        y: -0.0222099248248
        z: 0.504392598658
      orientation: 
        x: 0.994075416122
        y: 0.00467652726002
        z: -0.0595257711406
        w: -0.0908233434991
---
header: 
  seq: 136
  stamp: 
    secs: 1462800796
    nsecs:  48133842
  frame_id: camera_rgb_optical_frame
detections: 
  - 
    header: 
      seq: 0
      stamp: 
        secs: 1462800796
        nsecs:  48133842
      frame_id: camera_rgb_optical_frame
    id: 0
    corners2d: 
      - 
        x: 183.5
        y: 234.5
        z: 1.0
      - 
        x: 222.5
        y: 236.5
        z: 1.0
      - 
        x: 223.5
        y: 194.5
        z: 1.0
      - 
        x: 181.5
        y: 193.5
        z: 1.0
    tag_size: 0.0370000004768
    pose: 
      position: 
        x: -0.103276496353
        y: -0.0217596757899
        z: 0.504156075947
      orientation: 
        x: 0.99397828978
        y: 0.0166029068651
        z: -0.0604800227377
        w: -0.0898536019238
---
header: 
  seq: 137
  stamp: 
    secs: 1462800796
    nsecs:  81649773
  frame_id: camera_rgb_optical_frame
detections: 
  - 
    header: 
      seq: 0
      stamp: 
        secs: 1462800796
        nsecs:  81649773
      frame_id: camera_rgb_optical_frame
    id: 0
    corners2d: 
      - 
        x: 185.5
        y: 232.5
        z: 1.0
      - 
        x: 224.5
        y: 234.5
        z: 1.0
      - 
        x: 224.5
        y: 191.5
        z: 1.0
      - 
        x: 182.5
        y: 191.5
        z: 1.0
    tag_size: 0.0370000004768
    pose: 
      position: 
        x: -0.100531998648
        y: -0.023397684599
        z: 0.49700853637
      orientation: 
        x: 0.991695468389
        y: 0.00897006702221
        z: -0.0824704646778
        w: -0.0982764383239
---
header: 
  seq: 138
  stamp: 
    secs: 1462800796
    nsecs: 115165941
  frame_id: camera_rgb_optical_frame
detections: 
  - 
    header: 
      seq: 0
      stamp: 
        secs: 1462800796
        nsecs: 115165941
      frame_id: camera_rgb_optical_frame
    id: 0
    corners2d: 
      - 
        x: 187.5
        y: 234.5
        z: 1.0
      - 
        x: 226.5
        y: 235.5
        z: 1.0
      - 
        x: 225.5
        y: 194.5
        z: 1.0
      - 
        x: 184.5
        y: 193.5
        z: 1.0
    tag_size: 0.0370000004768
    pose: 
      position: 
        x: -0.100859395388
        y: -0.0220451424007
        z: 0.506397938676
      orientation: 
        x: 0.990450412907
        y: 0.00724698998346
        z: -0.0725576579726
        w: -0.1170078928
---
header: 
  seq: 139
  stamp: 
    secs: 1462800796
    nsecs: 148682348
  frame_id: camera_rgb_optical_frame
detections: 
  - 
    header: 
      seq: 0
      stamp: 
        secs: 1462800796
        nsecs: 148682348
      frame_id: camera_rgb_optical_frame
    id: 0
    corners2d: 
      - 
        x: 189.5
        y: 232.5
        z: 1.0
      - 
        x: 230.5
        y: 234.5
        z: 1.0
      - 
        x: 228.5
        y: 193.5
        z: 1.0
      - 
        x: 187.5
        y: 193.5
        z: 1.0
    tag_size: 0.0370000004768
    pose: 
      position: 
        x: -0.0987031044016
        y: -0.0230234906486
        z: 0.509309796755
      orientation: 
        x: 0.987983073251
        y: 0.0091459486633
        z: -0.0302897758826
        w: -0.151288889447
---
header: 
  seq: 140
  stamp: 
    secs: 1462800796
    nsecs: 182210438
  frame_id: camera_rgb_optical_frame
detections: []
---
header: 
  seq: 141
  stamp: 
    secs: 1462800796
    nsecs: 215730421
  frame_id: camera_rgb_optical_frame
detections: []
---
header: 
  seq: 142
  stamp: 
    secs: 1462800796
    nsecs: 249309055
  frame_id: camera_rgb_optical_frame
detections: []
---
header: 
  seq: 143
  stamp: 
    secs: 1462800796
    nsecs: 282824986
  frame_id: camera_rgb_optical_frame
detections: []
---
header: 
  seq: 144
  stamp: 
    secs: 1462800796
    nsecs: 316340916
  frame_id: camera_rgb_optical_frame
detections: []
---
header: 
  seq: 145
  stamp: 
    secs: 1462800796
    nsecs: 349857084
  frame_id: camera_rgb_optical_frame
detections: []
---
header: 
  seq: 146
  stamp: 
    secs: 1462800796
    nsecs: 383373014
  frame_id: camera_rgb_optical_frame
detections: []
---
header: 
  seq: 147
  stamp: 
    secs: 1462800796
    nsecs: 416888945
  frame_id: camera_rgb_optical_frame
detections: []
---
header: 
  seq: 148
  stamp: 
    secs: 1462800796
    nsecs: 450405113
  frame_id: camera_rgb_optical_frame
detections: 
  - 
    header: 
      seq: 0
      stamp: 
        secs: 1462800796
        nsecs: 450405113
      frame_id: camera_rgb_optical_frame
    id: 0
    corners2d: 
      - 
        x: 257.5
        y: 230.5
        z: 1.0
      - 
        x: 294.5
        y: 231.5
        z: 1.0
      - 
        x: 294.5
        y: 191.5
        z: 1.0
      - 
        x: 250.5
        y: 185.5
        z: 1.0
    tag_size: 0.0370000004768
    pose: 
      position: 
        x: -0.0369106266228
        y: -0.024625779418
        z: 0.469302381661
      orientation: 
        x: 0.953310308039
        y: -0.0131080841135
        z: 0.270390046549
        w: 0.133853866004
---
header: 
  seq: 149
  stamp: 
    secs: 1462800796
    nsecs: 483921043
  frame_id: camera_rgb_optical_frame
detections: []
---
header: 
  seq: 150
  stamp: 
    secs: 1462800796
    nsecs: 517436974
  frame_id: camera_rgb_optical_frame
detections: []
---
header: 
  seq: 151
  stamp: 
    secs: 1462800796
    nsecs: 550952904
  frame_id: camera_rgb_optical_frame
detections: 
  - 
    header: 
      seq: 0
      stamp: 
        secs: 1462800796
        nsecs: 550952904
      frame_id: camera_rgb_optical_frame
    id: 0
    corners2d: 
      - 
        x: 263.5
        y: 234.5
        z: 1.0
      - 
        x: 300.5
        y: 236.5
        z: 1.0
      - 
        x: 299.5
        y: 196.5
        z: 1.0
      - 
        x: 259.5
        y: 196.5
        z: 1.0
    tag_size: 0.0370000004768
    pose: 
      position: 
        x: -0.035538858527
        y: -0.0212756503581
        z: 0.520996888314
      orientation: 
        x: 0.979262053477
        y: -0.00145895188144
        z: -0.126268000451
        w: -0.158430092288
---
header: 
  seq: 152
  stamp: 
    secs: 1462800796
    nsecs: 584448807
  frame_id: camera_rgb_optical_frame
detections: []
---
header: 
  seq: 153
  stamp: 
    secs: 1462800796
    nsecs: 617951147
  frame_id: camera_rgb_optical_frame
detections: 
  - 
    header: 
      seq: 0
      stamp: 
        secs: 1462800796
        nsecs: 617951147
      frame_id: camera_rgb_optical_frame
    id: 0
    corners2d: 
      - 
        x: 265.5
        y: 236.5
        z: 1.0
      - 
        x: 302.5
        y: 236.5
        z: 1.0
      - 
        x: 300.5
        y: 198.5
        z: 1.0
      - 
        x: 261.5
        y: 198.5
        z: 1.0
    tag_size: 0.0370000004768
    pose: 
      position: 
        x: -0.0348209755712
        y: -0.0204489014097
        z: 0.535014886346
      orientation: 
        x: 0.982022941562
        y: -0.012196286661
        z: -0.103318052557
        w: -0.15750419948
---
header: 
  seq: 154
  stamp: 
    secs: 1462800796
    nsecs: 651467077
  frame_id: camera_rgb_optical_frame
detections: 
  - 
    header: 
      seq: 0
      stamp: 
        secs: 1462800796
        nsecs: 651467077
      frame_id: camera_rgb_optical_frame
    id: 0
    corners2d: 
      - 
        x: 267.5
        y: 236.5
        z: 1.0
      - 
        x: 304.5
        y: 236.5
        z: 1.0
      - 
        x: 303.5
        y: 198.5
        z: 1.0
      - 
        x: 263.5
        y: 198.5
        z: 1.0
    tag_size: 0.0370000004768
    pose: 
      position: 
        x: -0.0326292281292
        y: -0.0204070125168
        z: 0.5340912167
      orientation: 
        x: 0.983407826804
        y: -0.00950665091271
        z: -0.0803883209948
        w: -0.162346504788
---
header: 
  seq: 155
  stamp: 
    secs: 1462800796
    nsecs: 684983246
  frame_id: camera_rgb_optical_frame
detections: []
---
header: 
  seq: 156
  stamp: 
    secs: 1462800796
    nsecs: 718499176
  frame_id: camera_rgb_optical_frame
detections: []
---
header: 
  seq: 157
  stamp: 
    secs: 1462800796
    nsecs: 752015106
  frame_id: camera_rgb_optical_frame
detections: 
  - 
    header: 
      seq: 0
      stamp: 
        secs: 1462800796
        nsecs: 752015106
      frame_id: camera_rgb_optical_frame
    id: 0
    corners2d: 
      - 
        x: 277.5
        y: 235.5
        z: 1.0
      - 
        x: 312.5
        y: 237.5
        z: 1.0
      - 
        x: 316.5
        y: 197.5
        z: 1.0
      - 
        x: 273.5
        y: 201.5
        z: 1.0
    tag_size: 0.0370000004768
    pose: 
      position: 
        x: -0.022951008002
        y: -0.0199543602979
        z: 0.535609781995
      orientation: 
        x: 0.977632250477
        y: -0.00341913782119
        z: 0.0434954723066
        w: -0.205746533901
---
header: 
  seq: 158
  stamp: 
    secs: 1462800796
    nsecs: 785544626
  frame_id: camera_rgb_optical_frame
detections: []
---
header: 
  seq: 159
  stamp: 
    secs: 1462800796
    nsecs: 819060795
  frame_id: camera_rgb_optical_frame
detections: []
---
header: 
  seq: 160
  stamp: 
    secs: 1462800796
    nsecs: 852576725
  frame_id: camera_rgb_optical_frame
detections: []
---
header: 
  seq: 161
  stamp: 
    secs: 1462800796
    nsecs: 886118166
  frame_id: camera_rgb_optical_frame
detections: []
---
header: 
  seq: 162
  stamp: 
    secs: 1462800796
    nsecs: 919648401
  frame_id: camera_rgb_optical_frame
detections: []
---
header: 
  seq: 163
  stamp: 
    secs: 1462800796
    nsecs: 953274004
  frame_id: camera_rgb_optical_frame
detections: []
---
header: 
  seq: 164
  stamp: 
    secs: 1462800796
    nsecs: 986819498
  frame_id: camera_rgb_optical_frame
detections: []
---
header: 
  seq: 165
  stamp: 
    secs: 1462800797
    nsecs:  20335667
  frame_id: camera_rgb_optical_frame
detections: []
---
header: 
  seq: 166
  stamp: 
    secs: 1462800797
    nsecs:  53822033
  frame_id: camera_rgb_optical_frame
detections: []
---
header: 
  seq: 167
  stamp: 
    secs: 1462800797
    nsecs:  87337963
  frame_id: camera_rgb_optical_frame
detections: []
---
header: 
  seq: 168
  stamp: 
    secs: 1462800797
    nsecs: 120883457
  frame_id: camera_rgb_optical_frame
detections: 
  - 
    header: 
      seq: 0
      stamp: 
        secs: 1462800797
        nsecs: 120883457
      frame_id: camera_rgb_optical_frame
    id: 0
    corners2d: 
      - 
        x: 343.5
        y: 232.5
        z: 1.0
      - 
        x: 372.5
        y: 232.5
        z: 1.0
      - 
        x: 374.5
        y: 203.5
        z: 1.0
      - 
        x: 337.5
        y: 198.5
        z: 1.0
    tag_size: 0.0370000004768
    pose: 
      position: 
        x: 0.0398066609819
        y: -0.0240330160308
        z: 0.608010940025
      orientation: 
        x: 0.953482706051
        y: 0.000234186146037
        z: -0.177666342998
        w: -0.243526887599
---
header: 
  seq: 169
  stamp: 
    secs: 1462800797
    nsecs: 154399626
  frame_id: camera_rgb_optical_frame
detections: []
---
header: 
  seq: 170
  stamp: 
    secs: 1462800797
    nsecs: 187915556
  frame_id: camera_rgb_optical_frame
detections: 
  - 
    header: 
      seq: 0
      stamp: 
        secs: 1462800797
        nsecs: 187915556
      frame_id: camera_rgb_optical_frame
    id: 0
    corners2d: 
      - 
        x: 353.5
        y: 232.5
        z: 1.0
      - 
        x: 382.5
        y: 230.5
        z: 1.0
      - 
        x: 384.5
        y: 203.5
        z: 1.0
      - 
        x: 349.5
        y: 199.5
        z: 1.0
    tag_size: 0.0370000004768
    pose: 
      position: 
        x: 0.0546027940501
        y: -0.0260123632817
        z: 0.650108503943
      orientation: 
        x: 0.968141637411
        y: -0.0064176691598
        z: -0.111529167175
        w: -0.224102271971
---
header: 
  seq: 171
  stamp: 
    secs: 1462800797
    nsecs: 221431486
  frame_id: camera_rgb_optical_frame
detections: []
---
header: 
  seq: 172
  stamp: 
    secs: 1462800797
    nsecs: 254868023
  frame_id: camera_rgb_optical_frame
detections: []
---
header: 
  seq: 173
  stamp: 
    secs: 1462800797
    nsecs: 288463585
  frame_id: camera_rgb_optical_frame
detections: 
  - 
    header: 
      seq: 0
      stamp: 
        secs: 1462800797
        nsecs: 288463585
      frame_id: camera_rgb_optical_frame
    id: 0
    corners2d: 
      - 
        x: 364.5
        y: 231.5
        z: 1.0
      - 
        x: 391.5
        y: 233.5
        z: 1.0
      - 
        x: 394.5
        y: 205.5
        z: 1.0
      - 
        x: 361.5
        y: 201.5
        z: 1.0
    tag_size: 0.0370000004768
    pose: 
      position: 
        x: 0.0692842292276
        y: -0.0253498191096
        z: 0.677114423738
      orientation: 
        x: 0.96019696406
        y: 0.0178962493043
        z: -0.181138557228
        w: -0.211873399832
---
header: 
  seq: 174
  stamp: 
    secs: 1462800797
    nsecs: 321979515
  frame_id: camera_rgb_optical_frame
detections: 
  - 
    header: 
      seq: 0
      stamp: 
        secs: 1462800797
        nsecs: 321979515
      frame_id: camera_rgb_optical_frame
    id: 0
    corners2d: 
      - 
        x: 363.5
        y: 233.5
        z: 1.0
      - 
        x: 390.5
        y: 235.5
        z: 1.0
      - 
        x: 394.5
        y: 208.5
        z: 1.0
      - 
        x: 365.5
        y: 207.5
        z: 1.0
    tag_size: 0.0370000004768
    pose: 
      position: 
        x: 0.0772185165642
        y: -0.0237211653624
        z: 0.746422383162
      orientation: 
        x: 0.980470959417
        y: 0.0301440741156
        z: 0.0183759864385
        w: -0.193469262824
---
header: 
  seq: 175
  stamp: 
    secs: 1462800797
    nsecs: 355495445
  frame_id: camera_rgb_optical_frame
detections: 
  - 
    header: 
      seq: 0
      stamp: 
        secs: 1462800797
        nsecs: 355495445
      frame_id: camera_rgb_optical_frame
    id: 0
    corners2d: 
      - 
        x: 361.5
        y: 232.5
        z: 1.0
      - 
        x: 388.5
        y: 234.5
        z: 1.0
      - 
        x: 391.5
        y: 207.5
        z: 1.0
      - 
        x: 359.5
        y: 202.5
        z: 1.0
    tag_size: 0.0370000004768
    pose: 
      position: 
        x: 0.0670923569909
        y: -0.0242581838247
        z: 0.688052234825
      orientation: 
        x: 0.960642619798
        y: 0.0269446604415
        z: -0.178063511032
        w: -0.211502076443
---
header: 
  seq: 176
  stamp: 
    secs: 1462800797
    nsecs: 388931982
  frame_id: camera_rgb_optical_frame
detections: []
---
header: 
  seq: 177
  stamp: 
    secs: 1462800797
    nsecs: 422447912
  frame_id: camera_rgb_optical_frame
detections: []
---
header: 
  seq: 178
  stamp: 
    secs: 1462800797
    nsecs: 455956213
  frame_id: camera_rgb_optical_frame
detections: []
---
header: 
  seq: 179
  stamp: 
    secs: 1462800797
    nsecs: 489472382
  frame_id: camera_rgb_optical_frame
detections: 
  - 
    header: 
      seq: 0
      stamp: 
        secs: 1462800797
        nsecs: 489472382
      frame_id: camera_rgb_optical_frame
    id: 0
    corners2d: 
      - 
        x: 353.5
        y: 234.5
        z: 1.0
      - 
        x: 378.5
        y: 237.5
        z: 1.0
      - 
        x: 382.5
        y: 211.5
        z: 1.0
      - 
        x: 353.5
        y: 205.5
        z: 1.0
    tag_size: 0.0370000004768
    pose: 
      position: 
        x: 0.0610286746327
        y: -0.0221065277428
        z: 0.734859324781
      orientation: 
        x: 0.965149922489
        y: 0.0547808051798
        z: -0.199083113699
        w: -0.160781231315
---
header: 
  seq: 180
  stamp: 
    secs: 1462800797
    nsecs: 522995941
  frame_id: camera_rgb_optical_frame
detections: 
  - 
    header: 
      seq: 0
      stamp: 
        secs: 1462800797
        nsecs: 522995941
      frame_id: camera_rgb_optical_frame
    id: 0
    corners2d: 
      - 
        x: 349.5
        y: 232.5
        z: 1.0
      - 
        x: 374.5
        y: 236.5
        z: 1.0
      - 
        x: 379.5
        y: 208.5
        z: 1.0
      - 
        x: 353.5
        y: 207.5
        z: 1.0
    tag_size: 0.0370000004768
    pose: 
      position: 
        x: 0.0603696482797
        y: -0.0247612235852
        z: 0.771558628968
      orientation: 
        x: 0.970164491105
        y: 0.0722256646784
        z: -0.216383472052
        w: 0.0821127674822
---
header: 
  seq: 181
  stamp: 
    secs: 1462800797
    nsecs: 556559078
  frame_id: camera_rgb_optical_frame
detections: []
---
header: 
  seq: 182
  stamp: 
    secs: 1462800797
    nsecs: 590075247
  frame_id: camera_rgb_optical_frame
detections: []
---
header: 
  seq: 183
  stamp: 
    secs: 1462800797
    nsecs: 623591177
  frame_id: camera_rgb_optical_frame
detections: []
---
header: 
  seq: 184
  stamp: 
    secs: 1462800797
    nsecs: 657107107
  frame_id: camera_rgb_optical_frame
detections: []
---
header: 
  seq: 185
  stamp: 
    secs: 1462800797
    nsecs: 690623037
  frame_id: camera_rgb_optical_frame
detections: []
---
header: 
  seq: 186
  stamp: 
    secs: 1462800797
    nsecs: 724047415
  frame_id: camera_rgb_optical_frame
detections: []
---
header: 
  seq: 187
  stamp: 
    secs: 1462800797
    nsecs: 757563345
  frame_id: camera_rgb_optical_frame
detections: []
---
header: 
  seq: 188
  stamp: 
    secs: 1462800797
    nsecs: 791025154
  frame_id: camera_rgb_optical_frame
detections: []
---
header: 
  seq: 189
  stamp: 
    secs: 1462800797
    nsecs: 824541323
  frame_id: camera_rgb_optical_frame
detections: []
---
header: 
  seq: 190
  stamp: 
    secs: 1462800797
    nsecs: 858057253
  frame_id: camera_rgb_optical_frame
detections: []
---
header: 
  seq: 191
  stamp: 
    secs: 1462800797
    nsecs: 891627304
  frame_id: camera_rgb_optical_frame
detections: []
---
header: 
  seq: 192
  stamp: 
    secs: 1462800797
    nsecs: 925089113
  frame_id: camera_rgb_optical_frame
detections: []
---
header: 
  seq: 193
  stamp: 
    secs: 1462800797
    nsecs: 958605282
  frame_id: camera_rgb_optical_frame
detections: []
---
header: 
  seq: 194
  stamp: 
    secs: 1462800797
    nsecs: 992121212
  frame_id: camera_rgb_optical_frame
detections: []
---
header: 
  seq: 195
  stamp: 
    secs: 1462800798
    nsecs:  25637142
  frame_id: camera_rgb_optical_frame
detections: []
---
header: 
  seq: 196
  stamp: 
    secs: 1462800798
    nsecs:  59135906
  frame_id: camera_rgb_optical_frame
detections: []
---
header: 
  seq: 197
  stamp: 
    secs: 1462800798
    nsecs:  92597477
  frame_id: camera_rgb_optical_frame
detections: []
---
header: 
  seq: 198
  stamp: 
    secs: 1462800798
    nsecs: 126113407
  frame_id: camera_rgb_optical_frame
detections: []
---
header: 
  seq: 199
  stamp: 
    secs: 1462800798
    nsecs: 159629576
  frame_id: camera_rgb_optical_frame
detections: []
---
header: 
  seq: 200
  stamp: 
    secs: 1462800798
    nsecs: 193199865
  frame_id: camera_rgb_optical_frame
detections: []
---
header: 
  seq: 201
  stamp: 
    secs: 1462800798
    nsecs: 226715796
  frame_id: camera_rgb_optical_frame
detections: []
---
header: 
  seq: 202
  stamp: 
    secs: 1462800798
    nsecs: 260177366
  frame_id: camera_rgb_optical_frame
detections: []
---
header: 
  seq: 203
  stamp: 
    secs: 1462800798
    nsecs: 293799870
  frame_id: camera_rgb_optical_frame
detections: []
---
header: 
  seq: 204
  stamp: 
    secs: 1462800798
    nsecs: 327315800
  frame_id: camera_rgb_optical_frame
detections: []
---
header: 
  seq: 205
  stamp: 
    secs: 1462800798
    nsecs: 360831730
  frame_id: camera_rgb_optical_frame
detections: []
---
header: 
  seq: 206
  stamp: 
    secs: 1462800798
    nsecs: 394241564
  frame_id: camera_rgb_optical_frame
detections: []
---
header: 
  seq: 207
  stamp: 
    secs: 1462800798
    nsecs: 427757494
  frame_id: camera_rgb_optical_frame
detections: []
---
header: 
  seq: 208
  stamp: 
    secs: 1462800798
    nsecs: 461379759
  frame_id: camera_rgb_optical_frame
detections: []
---
header: 
  seq: 209
  stamp: 
    secs: 1462800798
    nsecs: 494789354
  frame_id: camera_rgb_optical_frame
detections: []
---
header: 
  seq: 210
  stamp: 
    secs: 1462800798
    nsecs: 528143160
  frame_id: camera_rgb_optical_frame
detections: []
---
header: 
  seq: 211
  stamp: 
    secs: 1462800798
    nsecs: 561579458
  frame_id: camera_rgb_optical_frame
detections: []
---
header: 
  seq: 212
  stamp: 
    secs: 1462800798
    nsecs: 595095388
  frame_id: camera_rgb_optical_frame
detections: []
---
header: 
  seq: 213
  stamp: 
    secs: 1462800798
    nsecs: 628611557
  frame_id: camera_rgb_optical_frame
detections: []
---
header: 
  seq: 214
  stamp: 
    secs: 1462800798
    nsecs: 662207119
  frame_id: camera_rgb_optical_frame
detections: []
---
header: 
  seq: 215
  stamp: 
    secs: 1462800798
    nsecs: 695723049
  frame_id: camera_rgb_optical_frame
detections: []
---
header: 
  seq: 216
  stamp: 
    secs: 1462800798
    nsecs: 729238979
  frame_id: camera_rgb_optical_frame
detections: []
---
header: 
  seq: 217
  stamp: 
    secs: 1462800798
    nsecs: 762758486
  frame_id: camera_rgb_optical_frame
detections: []
---
header: 
  seq: 218
  stamp: 
    secs: 1462800798
    nsecs: 796274416
  frame_id: camera_rgb_optical_frame
detections: []
---
header: 
  seq: 219
  stamp: 
    secs: 1462800798
    nsecs: 829790346
  frame_id: camera_rgb_optical_frame
detections: []
---
header: 
  seq: 220
  stamp: 
    secs: 1462800798
    nsecs: 863838665
  frame_id: camera_rgb_optical_frame
detections: []
---
header: 
  seq: 221
  stamp: 
    secs: 1462800798
    nsecs: 897354595
  frame_id: camera_rgb_optical_frame
detections: []
---
header: 
  seq: 222
  stamp: 
    secs: 1462800798
    nsecs: 930874102
  frame_id: camera_rgb_optical_frame
detections: []
---
header: 
  seq: 223
  stamp: 
    secs: 1462800798
    nsecs: 964416496
  frame_id: camera_rgb_optical_frame
detections: []
---
header: 
  seq: 224
  stamp: 
    secs: 1462800798
    nsecs: 998064272
  frame_id: camera_rgb_optical_frame
detections: []
---
header: 
  seq: 225
  stamp: 
    secs: 1462800799
    nsecs:  31580202
  frame_id: camera_rgb_optical_frame
detections: []
---
header: 
  seq: 226
  stamp: 
    secs: 1462800799
    nsecs:  65291159
  frame_id: camera_rgb_optical_frame
detections: []
---
header: 
  seq: 227
  stamp: 
    secs: 1462800799
    nsecs:  98807327
  frame_id: camera_rgb_optical_frame
detections: []
---
header: 
  seq: 228
  stamp: 
    secs: 1462800799
    nsecs: 132323257
  frame_id: camera_rgb_optical_frame
detections: []
---
header: 
  seq: 229
  stamp: 
    secs: 1462800799
    nsecs: 165839188
  frame_id: camera_rgb_optical_frame
detections: []
---
header: 
  seq: 230
  stamp: 
    secs: 1462800799
    nsecs: 199355356
  frame_id: camera_rgb_optical_frame
detections: []
---
header: 
  seq: 231
  stamp: 
    secs: 1462800799
    nsecs: 232871286
  frame_id: camera_rgb_optical_frame
detections: []
---
header: 
  seq: 232
  stamp: 
    secs: 1462800799
    nsecs: 266387217
  frame_id: camera_rgb_optical_frame
detections: []
---
header: 
  seq: 233
  stamp: 
    secs: 1462800799
    nsecs: 299903147
  frame_id: camera_rgb_optical_frame
detections: []
---
header: 
  seq: 234
  stamp: 
    secs: 1462800799
    nsecs: 333419315
  frame_id: camera_rgb_optical_frame
detections: []
---
header: 
  seq: 235
  stamp: 
    secs: 1462800799
    nsecs: 366935246
  frame_id: camera_rgb_optical_frame
detections: []
---
header: 
  seq: 236
  stamp: 
    secs: 1462800799
    nsecs: 400532476
  frame_id: camera_rgb_optical_frame
detections: []
---
header: 
  seq: 237
  stamp: 
    secs: 1462800799
    nsecs: 433967344
  frame_id: camera_rgb_optical_frame
detections: []
---
header: 
  seq: 238
  stamp: 
    secs: 1462800799
    nsecs: 467483274
  frame_id: camera_rgb_optical_frame
detections: []
---
header: 
  seq: 239
  stamp: 
    secs: 1462800799
    nsecs: 500696413
  frame_id: camera_rgb_optical_frame
detections: []
---
header: 
  seq: 240
  stamp: 
    secs: 1462800799
    nsecs: 535190813
  frame_id: camera_rgb_optical_frame
detections: []
---
header: 
  seq: 241
  stamp: 
    secs: 1462800799
    nsecs: 568706743
  frame_id: camera_rgb_optical_frame
detections: []
---
header: 
  seq: 242
  stamp: 
    secs: 1462800799
    nsecs: 602222673
  frame_id: camera_rgb_optical_frame
detections: []
---
header: 
  seq: 243
  stamp: 
    secs: 1462800799
    nsecs: 635703079
  frame_id: camera_rgb_optical_frame
detections: []
---
header: 
  seq: 244
  stamp: 
    secs: 1462800799
    nsecs: 669219248
  frame_id: camera_rgb_optical_frame
detections: []
---
header: 
  seq: 245
  stamp: 
    secs: 1462800799
    nsecs: 702706806
  frame_id: camera_rgb_optical_frame
detections: []
---
header: 
  seq: 246
  stamp: 
    secs: 1462800799
    nsecs: 736222736
  frame_id: camera_rgb_optical_frame
detections: []
---
header: 
  seq: 247
  stamp: 
    secs: 1462800799
    nsecs: 769767277
  frame_id: camera_rgb_optical_frame
detections: []
---
header: 
  seq: 248
  stamp: 
    secs: 1462800799
    nsecs: 803254835
  frame_id: camera_rgb_optical_frame
detections: []
---
header: 
  seq: 249
  stamp: 
    secs: 1462800799
    nsecs: 836770765
  frame_id: camera_rgb_optical_frame
detections: []
---
header: 
  seq: 250
  stamp: 
    secs: 1462800799
    nsecs: 870286695
  frame_id: camera_rgb_optical_frame
detections: []
---
header: 
  seq: 251
  stamp: 
    secs: 1462800799
    nsecs: 903336756
  frame_id: camera_rgb_optical_frame
detections: []
---
header: 
  seq: 252
  stamp: 
    secs: 1462800799
    nsecs: 936852686
  frame_id: camera_rgb_optical_frame
detections: []
---
header: 
  seq: 253
  stamp: 
    secs: 1462800799
    nsecs: 970834724
  frame_id: camera_rgb_optical_frame
detections: []
---
header: 
  seq: 254
  stamp: 
    secs: 1462800800
    nsecs:   4350893
  frame_id: camera_rgb_optical_frame
detections: []
---
header: 
  seq: 255
  stamp: 
    secs: 1462800800
    nsecs:  37400715
  frame_id: camera_rgb_optical_frame
detections: []
---
header: 
  seq: 256
  stamp: 
    secs: 1462800800
    nsecs:  70827000
  frame_id: camera_rgb_optical_frame
detections: []
---
header: 
  seq: 257
  stamp: 
    secs: 1462800800
    nsecs: 104342930
  frame_id: camera_rgb_optical_frame
detections: []
---
header: 
  seq: 258
  stamp: 
    secs: 1462800800
    nsecs: 137683861
  frame_id: camera_rgb_optical_frame
detections: []
---
header: 
  seq: 259
  stamp: 
    secs: 1462800800
    nsecs: 171165697
  frame_id: camera_rgb_optical_frame
detections: []
---
header: 
  seq: 260
  stamp: 
    secs: 1462800800
    nsecs: 204681627
  frame_id: camera_rgb_optical_frame
detections: []
---
header: 
  seq: 261
  stamp: 
    secs: 1462800800
    nsecs: 238231890
  frame_id: camera_rgb_optical_frame
detections: []
---
header: 
  seq: 262
  stamp: 
    secs: 1462800800
    nsecs: 271747820
  frame_id: camera_rgb_optical_frame
detections: []
---
header: 
  seq: 263
  stamp: 
    secs: 1462800800
    nsecs: 305263750
  frame_id: camera_rgb_optical_frame
detections: []
---
header: 
  seq: 264
  stamp: 
    secs: 1462800800
    nsecs: 338745825
  frame_id: camera_rgb_optical_frame
detections: []
---
header: 
  seq: 265
  stamp: 
    secs: 1462800800
    nsecs: 372261755
  frame_id: camera_rgb_optical_frame
detections: []
---
header: 
  seq: 266
  stamp: 
    secs: 1462800800
    nsecs: 405773870
  frame_id: camera_rgb_optical_frame
detections: []
---
header: 
  seq: 267
  stamp: 
    secs: 1462800800
    nsecs: 439289801
  frame_id: camera_rgb_optical_frame
detections: []
---
header: 
  seq: 268
  stamp: 
    secs: 1462800800
    nsecs: 472746126
  frame_id: camera_rgb_optical_frame
detections: []
---
header: 
  seq: 269
  stamp: 
    secs: 1462800800
    nsecs: 506321899
  frame_id: camera_rgb_optical_frame
detections: []
---
header: 
  seq: 270
  stamp: 
    secs: 1462800800
    nsecs: 539841644
  frame_id: camera_rgb_optical_frame
detections: []
---
header: 
  seq: 271
  stamp: 
    secs: 1462800800
    nsecs: 573353998
  frame_id: camera_rgb_optical_frame
detections: []
---
header: 
  seq: 272
  stamp: 
    secs: 1462800800
    nsecs: 606869928
  frame_id: camera_rgb_optical_frame
detections: []
---
header: 
  seq: 273
  stamp: 
    secs: 1462800800
    nsecs: 640389673
  frame_id: camera_rgb_optical_frame
detections: []
---
header: 
  seq: 274
  stamp: 
    secs: 1462800800
    nsecs: 673901789
  frame_id: camera_rgb_optical_frame
detections: []
---
header: 
  seq: 275
  stamp: 
    secs: 1462800800
    nsecs: 707358114
  frame_id: camera_rgb_optical_frame
detections: []
---
header: 
  seq: 276
  stamp: 
    secs: 1462800800
    nsecs: 740820639
  frame_id: camera_rgb_optical_frame
detections: []
---
header: 
  seq: 277
  stamp: 
    secs: 1462800800
    nsecs: 774336569
  frame_id: camera_rgb_optical_frame
detections: []
---
header: 
  seq: 278
  stamp: 
    secs: 1462800800
    nsecs: 807906143
  frame_id: camera_rgb_optical_frame
detections: []
---
header: 
  seq: 279
  stamp: 
    secs: 1462800800
    nsecs: 841336481
  frame_id: camera_rgb_optical_frame
detections: []
---
header: 
  seq: 280
  stamp: 
    secs: 1462800800
    nsecs: 874846689
  frame_id: camera_rgb_optical_frame
detections: []
---
header: 
  seq: 281
  stamp: 
    secs: 1462800800
    nsecs: 908318035
  frame_id: camera_rgb_optical_frame
detections: []
---
header: 
  seq: 282
  stamp: 
    secs: 1462800800
    nsecs: 941878788
  frame_id: camera_rgb_optical_frame
detections: 
  - 
    header: 
      seq: 0
      stamp: 
        secs: 1462800800
        nsecs: 941878788
      frame_id: camera_rgb_optical_frame
    id: 0
    corners2d: 
      - 
        x: 328.5
        y: 224.5
        z: 1.0
      - 
        x: 370.5
        y: 226.5
        z: 1.0
      - 
        x: 366.5
        y: 177.5
        z: 1.0
      - 
        x: 315.5
        y: 172.5
        z: 1.0
    tag_size: 0.0370000004768
    pose: 
      position: 
        x: 0.0170315635599
        y: -0.026192275761
        z: 0.38519786712
      orientation: 
        x: 0.926297733647
        y: -0.018469294769
        z: -0.290511822208
        w: -0.239236859512
---
header: 
  seq: 283
  stamp: 
    secs: 1462800800
    nsecs: 975394718
  frame_id: camera_rgb_optical_frame
detections: []
---
header: 
  seq: 284
  stamp: 
    secs: 1462800801
    nsecs:   8865826
  frame_id: camera_rgb_optical_frame
detections: []
---
header: 
  seq: 285
  stamp: 
    secs: 1462800801
    nsecs:  42335264
  frame_id: camera_rgb_optical_frame
detections: 
  - 
    header: 
      seq: 0
      stamp: 
        secs: 1462800801
        nsecs:  42335264
      frame_id: camera_rgb_optical_frame
    id: 0
    corners2d: 
      - 
        x: 349.5
        y: 229.5
        z: 1.0
      - 
        x: 394.5
        y: 230.5
        z: 1.0
      - 
        x: 391.5
        y: 182.5
        z: 1.0
      - 
        x: 343.5
        y: 183.5
        z: 1.0
    tag_size: 0.0370000004768
    pose: 
      position: 
        x: 0.0375670358856
        y: -0.0246094599694
        z: 0.429629121245
      orientation: 
        x: 0.961707581454
        y: -0.0250395422112
        z: -0.20852123778
        w: -0.176097820814
---
header: 
  seq: 286
  stamp: 
    secs: 1462800801
    nsecs:  75851194
  frame_id: camera_rgb_optical_frame
detections: 
  - 
    header: 
      seq: 0
      stamp: 
        secs: 1462800801
        nsecs:  75851194
      frame_id: camera_rgb_optical_frame
    id: 0
    corners2d: 
      - 
        x: 355.5
        y: 232.5
        z: 1.0
      - 
        x: 400.5
        y: 234.5
        z: 1.0
      - 
        x: 398.5
        y: 186.5
        z: 1.0
      - 
        x: 349.5
        y: 184.5
        z: 1.0
    tag_size: 0.0370000004768
    pose: 
      position: 
        x: 0.0410457755141
        y: -0.0217083843601
        z: 0.417633366757
      orientation: 
        x: 0.952918232417
        y: -0.0129545345948
        z: -0.236469362555
        w: -0.189370702416
---
header: 
  seq: 287
  stamp: 
    secs: 1462800801
    nsecs: 109296791
  frame_id: camera_rgb_optical_frame
detections: 
  - 
    header: 
      seq: 0
      stamp: 
        secs: 1462800801
        nsecs: 109296791
      frame_id: camera_rgb_optical_frame
    id: 0
    corners2d: 
      - 
        x: 360.5
        y: 231.5
        z: 1.0
      - 
        x: 406.5
        y: 232.5
        z: 1.0
      - 
        x: 404.5
        y: 183.5
        z: 1.0
      - 
        x: 356.5
        y: 185.5
        z: 1.0
    tag_size: 0.0370000004768
    pose: 
      position: 
        x: 0.0472630099826
        y: -0.0235735145136
        z: 0.433834015509
      orientation: 
        x: 0.971622672578
        y: -0.02023975949
        z: -0.19377254238
        w: -0.134134022855
---
header: 
  seq: 288
  stamp: 
    secs: 1462800801
    nsecs: 142812960
  frame_id: camera_rgb_optical_frame
detections: 
  - 
    header: 
      seq: 0
      stamp: 
        secs: 1462800801
        nsecs: 142812960
      frame_id: camera_rgb_optical_frame
    id: 0
    corners2d: 
      - 
        x: 365.5
        y: 236.5
        z: 1.0
      - 
        x: 412.5
        y: 237.5
        z: 1.0
      - 
        x: 410.5
        y: 189.5
        z: 1.0
      - 
        x: 361.5
        y: 187.5
        z: 1.0
    tag_size: 0.0370000004768
    pose: 
      position: 
        x: 0.0500883263835
        y: -0.0198120298469
        z: 0.418785932923
      orientation: 
        x: 0.987614657652
        y: -0.0035216325712
        z: 0.109339621078
        w: 0.112471033416
---
header: 
  seq: 289
  stamp: 
    secs: 1462800801
    nsecs: 176355831
  frame_id: camera_rgb_optical_frame
detections: 
  - 
    header: 
      seq: 0
      stamp: 
        secs: 1462800801
        nsecs: 176355831
      frame_id: camera_rgb_optical_frame
    id: 0
    corners2d: 
      - 
        x: 369.5
        y: 236.5
        z: 1.0
      - 
        x: 415.5
        y: 238.5
        z: 1.0
      - 
        x: 418.5
        y: 189.5
        z: 1.0
      - 
        x: 367.5
        y: 189.5
        z: 1.0
    tag_size: 0.0370000004768
    pose: 
      position: 
        x: 0.0553841252332
        y: -0.0195425975767
        z: 0.43276321315
      orientation: 
        x: 0.984025865003
        y: 0.00272342319723
        z: -0.125759856649
        w: -0.125976737639
---
header: 
  seq: 290
  stamp: 
    secs: 1462800801
    nsecs: 209789507
  frame_id: camera_rgb_optical_frame
detections: 
  - 
    header: 
      seq: 0
      stamp: 
        secs: 1462800801
        nsecs: 209789507
      frame_id: camera_rgb_optical_frame
    id: 0
    corners2d: 
      - 
        x: 373.5
        y: 234.5
        z: 1.0
      - 
        x: 422.5
        y: 238.5
        z: 1.0
      - 
        x: 424.5
        y: 189.5
        z: 1.0
      - 
        x: 373.5
        y: 188.5
        z: 1.0
    tag_size: 0.0370000004768
    pose: 
      position: 
        x: 0.0582879269675
        y: -0.0195466101337
        z: 0.422337100937
      orientation: 
        x: 0.974585151718
        y: 0.00836779593205
        z: -0.13262871789
        w: -0.180342411076
---
header: 
  seq: 291
  stamp: 
    secs: 1462800801
    nsecs: 243376486
  frame_id: camera_rgb_optical_frame
detections: 
  - 
    header: 
      seq: 0
      stamp: 
        secs: 1462800801
        nsecs: 243376486
      frame_id: camera_rgb_optical_frame
    id: 0
    corners2d: 
      - 
        x: 377.5
        y: 237.5
        z: 1.0
      - 
        x: 426.5
        y: 239.5
        z: 1.0
      - 
        x: 430.5
        y: 191.5
        z: 1.0
      - 
